[{"nombre_c": "DE TARAZONA", "tipo_c": "Escuela Oficial de Idiomas", "calidad": "street_address", "direccion_cruda": "Cl. Iglesias, 1, Tarazona, Zaragoza, 50500", "key": "50011045", "lat": 41.9038956, "lng": -1.7240063, "provincia": "Zaragoza", "direccion": "Calle Iglesias, 1, 50500 Tarazona, Zaragoza, Spain", "origen": "GMaps", "localidad": "Tarazona"}, {"nombre_c": "MAR DE ARAG\u00d3N", "tipo_c": "Instituto de Educaci\u00f3n Secundaria", "calidad": "postal_code", "direccion_cruda": "CL. JOS\u00c9 MAR\u00cdA ALBAREDA, S/N, Caspe, Zaragoza, 50700", "key": "50011732", "lat": 41.2607625, "lng": -0.0559939, "provincia": "Zaragoza", "direccion": "50700 Caspe, Zaragoza, Spain", "origen": "GMaps", "localidad": "Caspe"}, {"nombre_c": "DE CANTAVIEJA", "tipo_c": "Equipos de Orientaci\u00f3n Educativa y Psicopedag\u00f3gica. Generales", "calidad": "street_address", "direccion_cruda": "AVDA. MAESTRAZGO, 5, Cantavieja, Teruel, ", "key": "44700050", "lat": 40.5232955, "lng": -0.4049537, "provincia": "Teruel", "direccion": "Avenida Maestrazgo, 5, 44140 Cantavieja, Teruel, Spain", "origen": "GMaps", "localidad": "Cantavieja"}, {"nombre_c": "DE FUENTES DE EBRO", "tipo_c": "Equipos de Orientaci\u00f3n Educativa y Psicopedag\u00f3gica. Generales", "calidad": "street_address", "direccion_cruda": "Pza. de la Constituci\u00f3n, 4, Fuentes de Ebro, Zaragoza, 50740", "key": "50700185", "lat": 41.5119734, "lng": -0.6305266, "provincia": "Zaragoza", "direccion": "Plaza de la Constituci\u00f3n, 4, 50740 Fuentes de Ebro, Zaragoza, Spain", "origen": "GMaps", "localidad": "Fuentes de Ebro"}, {"nombre_c": "SANTA ROSA", "tipo_c": "Centro Privado de Educaci\u00f3n Infantil Primaria y Secundaria", "calidad": "street_address", "direccion_cruda": "Psje. Pico del \u00c1guila n\u00ba 7, Huesca, Huesca, 22004", "key": "22002466", "lat": 42.1425019, "lng": -0.414246, "provincia": "Huesca", "direccion": "Pasaje Pico del \u00c1guila, 7, 22004 Huesca, Huesca, Spain", "origen": "GMaps", "localidad": "Huesca"}, {"nombre_c": "L' ALBADA", "tipo_c": "Colegio Rural Agrupado", "calidad": "postal_code", "direccion_cruda": "Ctra. General, S/N, Bujaraloz, Zaragoza, 50177", "key": "50011321", "lat": 41.4611936, "lng": -0.1307797, "provincia": "Zaragoza", "direccion": "50177 Bujaraloz, Zaragoza, Spain", "origen": "GMaps", "localidad": "Bujaraloz"}, {"nombre_c": "MART\u00cdNEZ VARGAS", "tipo_c": "Instituto de Educaci\u00f3n Secundaria", "calidad": "postal_code", "direccion_cruda": "Cami. De La Boquera, S/N, Barbastro, Huesca, 22300", "key": "22004611", "lat": 42.0187105, "lng": 0.1307797, "provincia": "Huesca", "direccion": "22300 Barbastro, Huesca, Spain", "origen": "GMaps", "localidad": "Barbastro"}, {"nombre_c": "DE RUBIELOS DE MORA", "tipo_c": "Centro P\u00fablico de Educaci\u00f3n de Personas Adultas", "calidad": "postal_code", "direccion_cruda": "Cl. El Plano, 13, Rubielos de Mora, Teruel, 44415", "key": "44004926", "lat": 40.1741696, "lng": -0.6488505, "provincia": "Teruel", "direccion": "44415 Fuentes de Rubielos, Teruel, Spain", "origen": "GMaps", "localidad": "Rubielos de Mora"}, {"nombre_c": "PIRINEOS-PYR\u00c9N\u00c9ES", "tipo_c": "Colegio de Educaci\u00f3n Infantil y Primaria", "calidad": "street_address", "direccion_cruda": "CL. CORONA DE ARAG\u00d3N, 2, Huesca, Huesca, 22005", "key": "22010323", "lat": 42.1303904, "lng": -0.4017855, "provincia": "Huesca", "direccion": "Calle Corona de Arag\u00f3n, 2, 22005 Huesca, Huesca, Spain", "origen": "GMaps", "localidad": "Huesca"}, {"nombre_c": "ARZOBISPO DOM\u00c9NECH", "tipo_c": "Colegio de Educaci\u00f3n Infantil y Primaria", "calidad": "street_address", "direccion_cruda": "Cl. San Nicol\u00e1s De Tolentino, 2, Almonacid de la Sierra, Zaragoza, 50108", "key": "50000369", "lat": 41.3980155, "lng": -1.3217955, "provincia": "Zaragoza", "direccion": "Calle San Nicol\u00e1s de Tolentino, 2, 50108 Almonacid de la Sierra, Zaragoza, Spain", "origen": "GMaps", "localidad": "Almonacid de la Sierra"}, {"nombre_c": "LA MILAGROSA", "tipo_c": "Centro Privado de Educaci\u00f3n Infantil Primaria y Secundaria", "calidad": "postal_code", "direccion_cruda": "Cl. Maestro Estremiana, 3 Y 5, Zaragoza, Zaragoza, 50006", "key": "50007042", "lat": 41.6363925, "lng": -0.8925446, "provincia": "Zaragoza", "direccion": "50006 Zaragoza, Zaragoza, Spain", "origen": "GMaps", "localidad": "Zaragoza"}, {"nombre_c": "A REDOLADA", "tipo_c": "Colegio Rural Agrupado", "calidad": "street_address", "direccion_cruda": "Cl. Balmes, 16, Peralta de Alcofea, Huesca, 22130", "key": "22005698", "lat": 41.9305, "lng": -0.0672979, "provincia": "Huesca", "direccion": "Calle Balmes, 16, 22210 Peralta de Alcofea, Huesca, Spain", "origen": "GMaps", "localidad": "Peralta de Alcofea"}, {"nombre_c": "EL BARQUITO DE PAPEL", "tipo_c": "Centro Privado de Educaci\u00f3n Infantil", "calidad": "street_address", "direccion_cruda": "CL. DAROCA, 42-44, Zaragoza, Zaragoza, 50017", "key": "50017941", "lat": 41.6493741, "lng": -0.9065289, "provincia": "Zaragoza", "direccion": "Calle Daroca, 42, 50017 Zaragoza, Zaragoza, Spain", "origen": "GMaps", "localidad": "Zaragoza"}, {"nombre_c": "DE SARRI\u00d3N", "tipo_c": "Escuela de Educaci\u00f3n Infantil", "calidad": "street_address", "direccion_cruda": "AVDA. GOYA, 126, Sarri\u00f3n, Teruel, 44460", "key": "44010409", "lat": 40.1432049, "lng": -0.8159829, "provincia": "Teruel", "direccion": "Avenida Goya, 126, 44460 Sarri\u00f3n, Teruel, Spain", "origen": "GMaps", "localidad": "Sarri\u00f3n"}, {"nombre_c": "ADAGIO", "tipo_c": "Centro Privado Autorizado Elemental de M\u00fasica", "calidad": "postal_code", "direccion_cruda": "Cl. Residencial Para\u00edso, 5 - Bajos, Zaragoza, Zaragoza, 50008", "key": "50010454", "lat": 41.641489, "lng": -0.8782392, "provincia": "Zaragoza", "direccion": "50008 Zaragoza, Zaragoza, Spain", "origen": "GMaps", "localidad": "Zaragoza"}, {"nombre_c": "AGUSTINA DE ARAG\u00d3N", "tipo_c": "Colegio de Educaci\u00f3n Infantil y Primaria", "calidad": "postal_code", "direccion_cruda": "Eugenio Lucas n\u00ba 14, Zaragoza, Zaragoza, 50018", "key": "50017862", "lat": 41.6725454, "lng": -0.8913523, "provincia": "Zaragoza", "direccion": "50018 Zaragoza, Zaragoza, Spain", "origen": "GMaps", "localidad": "Zaragoza"}, {"nombre_c": "GUSTAVO ADOLFO B\u00c9CQUER", "tipo_c": "Colegio de Educaci\u00f3n Infantil y Primaria", "calidad": "street_address", "direccion_cruda": "Avda. de la Jota, n\u00ba 7, Garrapinillos, Zaragoza, 50190", "key": "50005574", "lat": 41.6830687, "lng": -1.0245572, "provincia": "Zaragoza", "direccion": "Avenida de la Jota, 7, 50011 Zaragoza, Zaragoza, Spain", "origen": "GMaps", "localidad": "Garrapinillos"}, {"nombre_c": "NININS", "tipo_c": "Escuela de Educaci\u00f3n Infantil", "calidad": "street_address", "direccion_cruda": "CL. GAITEROS DE CASERRAS, 2, Graus, Huesca, 22430", "key": "22010281", "lat": 42.1901128, "lng": 0.3359266, "provincia": "Huesca", "direccion": "Calle Gaiteros de Caserras, 2, 22430 Graus, Huesca, Spain", "origen": "GMaps", "localidad": "Graus"}, {"nombre_c": "P\u00cdO XII", "tipo_c": "Colegio de Educaci\u00f3n Infantil y Primaria", "calidad": "street_address", "direccion_cruda": "Cl. P\u00cdO XII, 1, Huesca, Huesca, 22006", "key": "22002338", "lat": 42.1417798, "lng": -0.3966296, "provincia": "Huesca", "direccion": "Calle P\u00edo XII, 1, 22006 Huesca, Huesca, Spain", "origen": "GMaps", "localidad": "Huesca"}, {"nombre_c": "NUESTRA SE\u00d1ORA DE LA ALEGR\u00cdA", "tipo_c": "Guarder\u00eda del Gobierno de Arag\u00f3n", "calidad": "postal_code", "direccion_cruda": "Avda. del Pueyo, 78, Monz\u00f3n, Huesca, 22400", "key": "22600084", "lat": 41.899614, "lng": 0.2057108, "provincia": "Huesca", "direccion": "22400 Monz\u00f3n, Huesca, Spain", "origen": "GMaps", "localidad": "Monz\u00f3n"}, {"nombre_c": "ARCO-IRIS", "tipo_c": "Escuela de Educaci\u00f3n Infantil", "calidad": "street_address", "direccion_cruda": "AVDA. ZARAGOZA, 2, Cadrete, Zaragoza, 50420", "key": "50017783", "lat": 41.5568476, "lng": -0.9618349, "provincia": "Zaragoza", "direccion": "Avenida Zaragoza, 2, 50420 Cadrete, Zaragoza, Spain", "origen": "GMaps", "localidad": "Cadrete"}, {"nombre_c": "HERMANOS ARGENSOLA", "tipo_c": "Instituto de Educaci\u00f3n Secundaria", "calidad": "postal_code", "direccion_cruda": "Avda. Del Cinca, S/N, Barbastro, Huesca, 22300", "key": "22000809", "lat": 42.0187105, "lng": 0.1307797, "provincia": "Huesca", "direccion": "22300 Barbastro, Huesca, Spain", "origen": "GMaps", "localidad": "Barbastro"}, {"nombre_c": "DIEGO ESCOLANO", "tipo_c": "Colegio de Educaci\u00f3n Infantil y Primaria", "calidad": "route", "direccion_cruda": "AVDA. de valencia s/n, Longares, Zaragoza, 50460", "key": "50017667", "lat": 41.4010999, "lng": -1.1680594, "provincia": "Zaragoza", "direccion": "Carretera Valencia, 50460 Longares, Zaragoza, Spain", "origen": "GMaps", "localidad": "Longares"}, {"nombre_c": "ACADEMIA DE LOG\u00cdSTICA DEL EJ\u00c9RCITO DE TIERRA", "tipo_c": "Centro Docente de Formaci\u00f3n Militar", "calidad": "CITY", "direccion_cruda": "AVDA. DE LAS FUERZAS ARMADAS, S/N, Calatayud, Zaragoza, 50300", "key": "50001180", "lat": 41.352763, "lng": -1.642298, "provincia": "Zaragoza", "direccion": ", , Calatayud, Provincia de Zaragoza, Aragon, ", "origen": "MapQuest", "localidad": "Calatayud"}, {"nombre_c": "SAN VALERO", "tipo_c": "Centro Privado de Educaci\u00f3n Secundaria", "calidad": "street_address", "direccion_cruda": "Cl. Violeta Parra, 9, Zaragoza, Zaragoza, 50015", "key": "50007716", "lat": 41.6697521, "lng": -0.8785142, "provincia": "Zaragoza", "direccion": "Calle Violeta Parra, 9, 50015 Zaragoza, Zaragoza, Spain", "origen": "GMaps", "localidad": "Zaragoza"}, {"nombre_c": "ESCUELAS P\u00cdAS", "tipo_c": "Centro Privado de Educaci\u00f3n Infantil Primaria y Secundaria", "calidad": "street_address", "direccion_cruda": "Cl. Conde De Aranda, 2, Zaragoza, Zaragoza, 50003", "key": "50006751", "lat": 41.6544036, "lng": -0.8850332, "provincia": "Zaragoza", "direccion": "Calle Conde Aranda, 2, 50003 Zaragoza, Zaragoza, Spain", "origen": "GMaps", "localidad": "Zaragoza"}, {"nombre_c": "CITT\u00c1 DI ROMA", "tipo_c": "Centro Privado Autorizado Profesional de M\u00fasica", "calidad": "street_address", "direccion_cruda": "Cl. Pablo Remacha, 13, Zaragoza, Zaragoza, 50013", "key": "50011604", "lat": 41.638587, "lng": -0.8725771, "provincia": "Zaragoza", "direccion": "Calle Pablo Remacha, 13, 50008 Zaragoza, Zaragoza, Spain", "origen": "GMaps", "localidad": "Zaragoza"}, {"nombre_c": "PIR\u00c1MIDE", "tipo_c": "Secci\u00f3n de Instituto de Educaci\u00f3n Secundaria", "calidad": "postal_code", "direccion_cruda": "CL. Miguel Monserrat s/n, Almud\u00e9var, Huesca, 22270", "key": "22006083", "lat": 42.0966753, "lng": -0.5446912, "provincia": "Huesca", "direccion": "22270 Almud\u00e9var, Huesca, Spain", "origen": "GMaps", "localidad": "Almud\u00e9var"}, {"nombre_c": "JUAN PABLO BONET", "tipo_c": "Colegio de Educaci\u00f3n Infantil y Primaria", "calidad": "street_address", "direccion_cruda": "Cl. R\u00edo G\u00e1llego, 42, Movera, Zaragoza, 50194", "key": "50005677", "lat": 41.6688821, "lng": -0.8388303, "provincia": "Zaragoza", "direccion": "Calle R\u00edo G\u00e1llego, 42, 50016 Zaragoza, Zaragoza, Spain", "origen": "GMaps", "localidad": "Movera"}, {"nombre_c": "LA PIRA\u00d1A", "tipo_c": "Escuela de Educaci\u00f3n Infantil", "calidad": "street_address", "direccion_cruda": "CL. FLORENTINO BALLESTEROS, 2, Zaragoza, Zaragoza, 50002", "key": "50018192", "lat": 41.64496, "lng": -0.86957, "provincia": "Zaragoza", "direccion": "Calle Ballesteros, Florentino, 2, 50013 Zaragoza, Zaragoza, Spain", "origen": "GMaps", "localidad": "Zaragoza"}, {"nombre_c": "VIRGEN DEL PILAR", "tipo_c": "Colegio de Educaci\u00f3n Infantil y Primaria", "calidad": "postal_code", "direccion_cruda": "Avda. De Teruel S/N, Calanda, Teruel, 44570", "key": "44000829", "lat": 40.9483544, "lng": -0.2338473, "provincia": "Teruel", "direccion": "44570 Calanda, Teruel, Spain", "origen": "GMaps", "localidad": "Calanda"}, {"nombre_c": "MIGUEL DE MOLINOS", "tipo_c": "Instituto de Educaci\u00f3n Secundaria", "calidad": "street_address", "direccion_cruda": "Cl. Gabriel Garc\u00eda M\u00e1rquez, 20, Zaragoza, Zaragoza, 50018", "key": "50010958", "lat": 41.6728197, "lng": -0.8939881, "provincia": "Zaragoza", "direccion": "Calle Gabriel Garc\u00eda M\u00e1rquez, 20, 50018 Zaragoza, Zaragoza, Spain", "origen": "GMaps", "localidad": "Zaragoza"}, {"nombre_c": "CERVANTES", "tipo_c": "Colegio de Educaci\u00f3n Infantil y Primaria", "calidad": "street_address", "direccion_cruda": "Cl. Cervantes, 9, Ejea de los Caballeros, Zaragoza, 50600", "key": "50001763", "lat": 42.125017, "lng": -1.1380126, "provincia": "Zaragoza", "direccion": "Calle de Cervantes, 9, 50600 Ejea de los Caballeros, Zaragoza, Spain", "origen": "GMaps", "localidad": "Ejea de los Caballeros"}, {"nombre_c": "EL ENEBRO", "tipo_c": "Colegio Rural Agrupado", "calidad": "street_address", "direccion_cruda": "Cl. San Roque, 24, Sabi\u00f1\u00e1n, Zaragoza, 50299", "key": "50011136", "lat": 41.4434178, "lng": -1.5633011, "provincia": "Zaragoza", "direccion": "Avenida San Roque, 24, 50299 Sabi\u00f1\u00e1n, Zaragoza, Spain", "origen": "GMaps", "localidad": "Sabi\u00f1\u00e1n"}, {"nombre_c": "CALAMOCHA", "tipo_c": "Colegio de Educaci\u00f3n Infantil y Primaria", "calidad": "street_address", "direccion_cruda": "Avda. de Arag\u00f3n, 35, Calamocha, Teruel, 44200", "key": "44700153", "lat": 40.9163034, "lng": -1.3013142, "provincia": "Teruel", "direccion": "Calle Arag\u00f3n, 35, 44200 Calamocha, Teruel, Spain", "origen": "GMaps", "localidad": "Calamocha"}, {"nombre_c": "DE CALAMOCHA", "tipo_c": "Equipos de Orientaci\u00f3n Educativa y Psicopedag\u00f3gica. Generales", "calidad": "postal_code", "direccion_cruda": "Cl. Melchor de Luz\u00f3n, 6 - 2\u00aa Planta, Calamocha, Teruel, 44200", "key": "44700098", "lat": 40.9208866, "lng": -1.3180042, "provincia": "Teruel", "direccion": "44200 Calamocha, Teruel, Spain", "origen": "GMaps", "localidad": "Calamocha"}, {"nombre_c": "DE UTEBO", "tipo_c": "Escuela Oficial de Idiomas", "calidad": "street_address", "direccion_cruda": "P.\u00ba Berbegal, 22, Utebo, Zaragoza, 50180", "key": "50011033", "lat": 41.7115232, "lng": -0.996841, "provincia": "Zaragoza", "direccion": "Paseo Berbegal, 22, 50180 Utebo, Zaragoza, Spain", "origen": "GMaps", "localidad": "Utebo"}, {"nombre_c": "LA SELVETA", "tipo_c": "Escuela de Educaci\u00f3n Infantil", "calidad": "postal_code", "direccion_cruda": "CL. CONCEPCI\u00d3N GIMENO GIL, N\u00ba 7, PLANTA BAJA, Alca\u00f1iz, Teruel, 44600", "key": "44010276", "lat": 41.0795661, "lng": -0.1869644, "provincia": "Teruel", "direccion": "44600 Alca\u00f1iz, Teruel, Spain", "origen": "GMaps", "localidad": "Alca\u00f1iz"}, {"nombre_c": "BAJO G\u00c1LLEGO", "tipo_c": "Colegio Rural Agrupado", "calidad": "street_address", "direccion_cruda": "Avda. Zaragoza, 84, Leci\u00f1ena, Zaragoza, 50160", "key": "50011422", "lat": 41.7982595, "lng": -0.6095158, "provincia": "Zaragoza", "direccion": "Avenida Zaragoza, 84, 50160 Leci\u00f1ena, Zaragoza, Spain", "origen": "GMaps", "localidad": "Leci\u00f1ena"}, {"nombre_c": "ESCUELA DE M\u00daSICA", "tipo_c": "Escuela P\u00fablica de M\u00fasica", "calidad": "postal_code", "direccion_cruda": "Cl. Argensola, 26 Casa De Cultura, Barbastro, Huesca, 22300", "key": "22010131", "lat": 42.0187105, "lng": 0.1307797, "provincia": "Huesca", "direccion": "22300 Barbastro, Huesca, Spain", "origen": "GMaps", "localidad": "Barbastro"}, {"nombre_c": "DE BRONCHALES", "tipo_c": "Escuela de Educaci\u00f3n Infantil", "calidad": "street_address", "direccion_cruda": "CL. CARRETERA, 17-B, Bronchales, Teruel, 44367", "key": "44010574", "lat": 40.5080273, "lng": -1.5867338, "provincia": "Teruel", "direccion": "Calle Carretera, 17, 44367 Bronchales, Teruel, Spain", "origen": "GMaps", "localidad": "Bronchales"}, {"nombre_c": "VALLE DE TENA", "tipo_c": "Centro Privado de Formaci\u00f3n Profesional Espec\u00edfica", "calidad": "postal_code", "direccion_cruda": "P.\u00ba Isabel La Cat\u00f3lica, 5-7, Zaragoza, Zaragoza, 50009", "key": "50011781", "lat": 41.640049, "lng": -0.9032769, "provincia": "Zaragoza", "direccion": "50009 Zaragoza, Zaragoza, Spain", "origen": "GMaps", "localidad": "Zaragoza"}, {"nombre_c": "DE RUBIELOS DE MORA", "tipo_c": "Escuela de Educaci\u00f3n Infantil", "calidad": "street_address", "direccion_cruda": "CL. ESTERRADOR, 1, Rubielos de Mora, Teruel, 44415", "key": "44010471", "lat": 40.1895514, "lng": -0.6536834, "provincia": "Teruel", "direccion": "Calle Esterrador, 1, 44415 Rubielos de Mora, Teruel, Spain", "origen": "GMaps", "localidad": "Rubielos de Mora"}, {"nombre_c": "NUESTRA SE\u00d1ORA DE LORETO", "tipo_c": "Escuela de Educaci\u00f3n Infantil", "calidad": "CITY", "direccion_cruda": "BASE A\u00c9REA DE ZARAGOZA, CTRA. DEL AEROPUERTO, S/N, Zaragoza, Zaragoza, 50071", "key": "50018040", "lat": 41.652134, "lng": -0.880943, "provincia": "Zaragoza", "direccion": ", , Zaragoza, Provincia de Zaragoza, Aragon, ", "origen": "MapQuest", "localidad": "Zaragoza"}, {"nombre_c": "R\u00cdO VERO", "tipo_c": "Escuela Oficial de Idiomas", "calidad": "postal_code", "direccion_cruda": "Cami. De La Boquera, S/N, Barbastro, Huesca, 22300", "key": "22010037", "lat": 42.0187105, "lng": 0.1307797, "provincia": "Huesca", "direccion": "22300 Barbastro, Huesca, Spain", "origen": "GMaps", "localidad": "Barbastro"}, {"nombre_c": "LUCAS MALLADA", "tipo_c": "Instituto de Educaci\u00f3n Secundaria", "calidad": "street_address", "direccion_cruda": "Cl. Torre Mendoza, 2, Huesca, Huesca, 22005", "key": "22004773", "lat": 42.1358279, "lng": -0.4040594, "provincia": "Huesca", "direccion": "Calle Torre Mendoza, 2, 22005 Huesca, Huesca, Spain", "origen": "GMaps", "localidad": "Huesca"}, {"nombre_c": "SIERRA DE ALBARRAC\u00cdN", "tipo_c": "Colegio Rural Agrupado", "calidad": "street_address", "direccion_cruda": "Cl. Magdalena, 32, Tramacastilla, Teruel, 44112", "key": "44004495", "lat": 40.4303823, "lng": -1.5716909, "provincia": "Teruel", "direccion": "Calle Magdalena, 32, 44112 Tramacastilla, Teruel, Spain", "origen": "GMaps", "localidad": "Tramacastilla"}, {"nombre_c": "ALGARS", "tipo_c": "Colegio Rural Agrupado", "calidad": "postal_code", "direccion_cruda": "Cl. Jard\u00edn De La Corona De Arag\u00f3n, S/N, Cretas, Teruel, 44623", "key": "44005131", "lat": 40.9282239, "lng": 0.1963364, "provincia": "Teruel", "direccion": "44623 Cretas, Teruel, Spain", "origen": "GMaps", "localidad": "Cretas"}, {"nombre_c": "ARSENIO JIMENO", "tipo_c": "Centro Privado de Formaci\u00f3n Profesional Espec\u00edfica", "calidad": "postal_code", "direccion_cruda": "Cl. Eduardo Jimeno Correas, S/N, Zaragoza, Zaragoza, 50018", "key": "50017096", "lat": 41.6725454, "lng": -0.8913523, "provincia": "Zaragoza", "direccion": "50018 Zaragoza, Zaragoza, Spain", "origen": "GMaps", "localidad": "Zaragoza"}, {"nombre_c": "DUENDEDUCA", "tipo_c": "Centro Privado de Educaci\u00f3n Infantil", "calidad": "postal_code", "direccion_cruda": "AVDA. SALVADOR ALLENDE, 71, Zaragoza, Zaragoza, 50015", "key": "50018167", "lat": 41.692694, "lng": -0.8627473, "provincia": "Zaragoza", "direccion": "50015 Zaragoza, Zaragoza, Spain", "origen": "GMaps", "localidad": "Zaragoza"}, {"nombre_c": "COLLARADA", "tipo_c": "Colegio de Educaci\u00f3n Infantil y Primaria", "calidad": "postal_code", "direccion_cruda": "Cami. La Fuente, S/N, Villan\u00faa, Huesca, 22870", "key": "22004566", "lat": 42.6771153, "lng": -0.5163312, "provincia": "Huesca", "direccion": "22870 Villan\u00faa, Huesca, Spain", "origen": "GMaps", "localidad": "Villan\u00faa"}, {"nombre_c": "CRISTO REY", "tipo_c": "Centro Privado de Educaci\u00f3n Infantil Primaria y Secundaria", "calidad": "street_address", "direccion_cruda": "Avda. Academia General Militar, 80, Zaragoza, Zaragoza, 50015", "key": "50006669", "lat": 41.6839528, "lng": -0.8709827, "provincia": "Zaragoza", "direccion": "Avenida Academia General Militar, 80, 50015 Zaragoza, Zaragoza, Spain", "origen": "GMaps", "localidad": "Zaragoza"}, {"nombre_c": "PABLO SERRANO", "tipo_c": "Instituto de Educaci\u00f3n Secundaria", "calidad": "street_address", "direccion_cruda": "CL. HERMANAS ZAPATA, 8, Andorra, Teruel, 44500", "key": "44004653", "lat": 40.9768523, "lng": -0.4506512, "provincia": "Teruel", "direccion": "Calle Hermanas Zapata, 8, 44500 Andorra, Teruel, Spain", "origen": "GMaps", "localidad": "Andorra"}, {"nombre_c": "DE HUESCA", "tipo_c": "Escuela Oficial de Idiomas", "calidad": "postal_code", "direccion_cruda": "P.\u00ba Lucas Mallada, S/N, Huesca, Huesca, 22006", "key": "22005212", "lat": 42.1516084, "lng": -0.4078058, "provincia": "Huesca", "direccion": "22006 Huesca, Huesca, Spain", "origen": "GMaps", "localidad": "Huesca"}, {"nombre_c": "VIRGEN DE GUADALUPE", "tipo_c": "Centro Privado de Educaci\u00f3n Infantil", "calidad": "street_address", "direccion_cruda": "Cl. Isla De Yerba, 12, Zaragoza, Zaragoza, 50012", "key": "50005483", "lat": 41.6316798, "lng": -0.9151841, "provincia": "Zaragoza", "direccion": "Calle Isla de Yerba, 12, 50012 Zaragoza, Zaragoza, Spain", "origen": "GMaps", "localidad": "Zaragoza"}, {"nombre_c": "LA CASITA BLANCA", "tipo_c": "Escuela de Educaci\u00f3n Infantil", "calidad": "street_address", "direccion_cruda": "PZA. DEL PILAR, 1, Canfranc-Estaci\u00f3n, Huesca, 22880", "key": "22010581", "lat": 42.7466205, "lng": -0.5163087, "provincia": "Huesca", "direccion": "Plaza del Pilar, 1, 22880 Canfranc-Estaci\u00f3n, Huesca, Spain", "origen": "GMaps", "localidad": "Canfranc-Estaci\u00f3n"}, {"nombre_c": "DE ALBARRAC\u00cdN", "tipo_c": "Colegio Rural Agrupado", "calidad": "postal_code", "direccion_cruda": "Cami. De Gea, S/N, Albarrac\u00edn, Teruel, 44100", "key": "44004793", "lat": 40.5833598, "lng": -1.52752, "provincia": "Teruel", "direccion": "44100 Albarrac\u00edn, Teruel, Spain", "origen": "GMaps", "localidad": "Albarrac\u00edn"}, {"nombre_c": "BAJO ARAG\u00d3N", "tipo_c": "Centro Privado de Educaci\u00f3n Infantil Primaria y Secundaria", "calidad": "street_address", "direccion_cruda": "Cl. Padre Chaminade, 6, Zaragoza, Zaragoza, 50013", "key": "50008034", "lat": 41.6388283, "lng": -0.86422, "provincia": "Zaragoza", "direccion": "Calle Padre Chaminade, 6, 50013 Zaragoza, Zaragoza, Spain", "origen": "GMaps", "localidad": "Zaragoza"}, {"nombre_c": "DE MORATA DE JAL\u00d3N", "tipo_c": "Escuela de Educaci\u00f3n Infantil", "calidad": "postal_code", "direccion_cruda": "CAMI. DEL BALD\u00cdO, S/N, Morata de Jal\u00f3n, Zaragoza, 50260", "key": "50018611", "lat": 41.4418714, "lng": -1.4724751, "provincia": "Zaragoza", "direccion": "50260 Morata de Jal\u00f3n, Zaragoza, Spain", "origen": "GMaps", "localidad": "Morata de Jal\u00f3n"}, {"nombre_c": "EL BUEN PASTOR", "tipo_c": "Centro Privado de Educaci\u00f3n Infantil Primaria y Secundaria", "calidad": "street_address", "direccion_cruda": "Cl. Monz\u00f3n, 27, Zaragoza, Zaragoza, 50007", "key": "50006529", "lat": 41.6296194, "lng": -0.882169, "provincia": "Zaragoza", "direccion": "Calle Monz\u00f3n, 27, 50007 Zaragoza, Zaragoza, Spain", "origen": "GMaps", "localidad": "Zaragoza"}, {"nombre_c": "IR CRECIENDO", "tipo_c": "Centro Privado de Educaci\u00f3n Infantil", "calidad": "street_address", "direccion_cruda": "CL. Ciudadano Kane, 33-35, Zaragoza, Zaragoza, 50019", "key": "50019214", "lat": 41.620495, "lng": -0.9249213, "provincia": "Zaragoza", "direccion": "Calle Ciudadano Kane, 33, 50019 Zaragoza, Zaragoza, Spain", "origen": "GMaps", "localidad": "Zaragoza"}, {"nombre_c": "LA CARTUJA BAJA", "tipo_c": "Centro Privado de Educaci\u00f3n Infantil", "calidad": "postal_code", "direccion_cruda": "CL. AUTONOM\u00cdA DE ARAG\u00d3N, 11, Cartuja Baja, Zaragoza, 50720", "key": "50017643", "lat": 41.5386782, "lng": -0.7722974, "provincia": "Zaragoza", "direccion": "50720 Zaragoza, Zaragoza, Spain", "origen": "GMaps", "localidad": "Cartuja Baja"}, {"nombre_c": "SANTA ROSA", "tipo_c": "Centro Privado de Educaci\u00f3n Infantil Primaria y Secundaria", "calidad": "street_address", "direccion_cruda": "Cl. Azoque, 33, Zaragoza, Zaragoza, 50004", "key": "50007807", "lat": 41.6517206, "lng": -0.8842239, "provincia": "Zaragoza", "direccion": "Calle Azoque, 33, 50004 Zaragoza, Zaragoza, Spain", "origen": "GMaps", "localidad": "Zaragoza"}, {"nombre_c": "LOS IBONES", "tipo_c": "Escuela de Educaci\u00f3n Infantil", "calidad": "street_address", "direccion_cruda": "CL. ANTONIO LEYVA N\u00ba 102, Zaragoza, Zaragoza, 50011", "key": "50018349", "lat": 41.6511519, "lng": -0.9329536, "provincia": "Zaragoza", "direccion": "Calle Antonio de Leyva, 102, 50011 Zaragoza, Zaragoza, Spain", "origen": "GMaps", "localidad": "Zaragoza"}, {"nombre_c": "LA PEQUE\u00d1A COMETA", "tipo_c": "Centro Privado de Educaci\u00f3n Infantil", "calidad": "street_address", "direccion_cruda": "Cl. Ildefonso Manuel Gil, 37, Zaragoza, Zaragoza, 50018", "key": "50017138", "lat": 41.6715916, "lng": -0.8849945, "provincia": "Zaragoza", "direccion": "Calle Ildefonso Manuel Gil, 37, 50018 Zaragoza, Zaragoza, Spain", "origen": "GMaps", "localidad": "Zaragoza"}, {"nombre_c": "ANGEL MINGOTE", "tipo_c": "Centro Privado Autorizado Elemental de M\u00fasica", "calidad": "CITY", "direccion_cruda": "Cl. Andador De Los Hudies, 6-E, Bajos, Zaragoza, Zaragoza, 50009", "key": "50011641", "lat": 41.652134, "lng": -0.880943, "provincia": "Zaragoza", "direccion": ", , Zaragoza, Provincia de Zaragoza, Aragon, ", "origen": "MapQuest", "localidad": "Zaragoza"}, {"nombre_c": "INMACULADA CONCEPCI\u00d3N", "tipo_c": "Centro Privado de Educaci\u00f3n Infantil Primaria y Secundaria", "calidad": "street_address", "direccion_cruda": "Cl. Concepci\u00f3n, 8-10, Zaragoza, Zaragoza, 50008", "key": "50006888", "lat": 41.6473512, "lng": -0.8748432, "provincia": "Zaragoza", "direccion": "Calle Concepci\u00f3n, 8, 50008 Zaragoza, Zaragoza, Spain", "origen": "GMaps", "localidad": "Zaragoza"}, {"nombre_c": "E.F.A. EL SALTO", "tipo_c": "Centro Privado de Formaci\u00f3n Profesional Espec\u00edfica", "calidad": "postal_code", "direccion_cruda": "Ctra. De Huesca, Km. 28,5, Zuera, Zaragoza, 50800", "key": "50008629", "lat": 41.896949, "lng": -0.810357, "provincia": "Zaragoza", "direccion": "50800, Zaragoza, Spain", "origen": "GMaps", "localidad": "Zuera"}, {"nombre_c": "SANTA MAR\u00cdA DEL PILAR", "tipo_c": "Guarder\u00eda del Gobierno de Arag\u00f3n", "calidad": "street_address", "direccion_cruda": "CL. Jos\u00e9 Pellicer, 2, Zaragoza, Zaragoza, 50007", "key": "50600166", "lat": 41.6373114, "lng": -0.8778282, "provincia": "Zaragoza", "direccion": "Calle Jos\u00e9 Pellicer, 2, 50007 Zaragoza, Zaragoza, Spain", "origen": "GMaps", "localidad": "Zaragoza"}, {"nombre_c": "BALTASAR GRACI\u00c1N", "tipo_c": "Instituto de Educaci\u00f3n Secundaria", "calidad": "postal_code", "direccion_cruda": "Partida Coscolla, S/N, Graus, Huesca, 22430", "key": "22002168", "lat": 42.1863773, "lng": 0.3465971, "provincia": "Huesca", "direccion": "22430 Graus, Huesca, Spain", "origen": "GMaps", "localidad": "Graus"}, {"nombre_c": "ZAUR\u00cdN", "tipo_c": "Instituto de Educaci\u00f3n Secundaria", "calidad": "street_address", "direccion_cruda": "P.\u00ba Manubles, 6, Ateca, Zaragoza, 50200", "key": "50011252", "lat": 41.331716, "lng": -1.7908827, "provincia": "Zaragoza", "direccion": "Paseo Manubles, 6, 50200 Ateca, Zaragoza, Spain", "origen": "GMaps", "localidad": "Ateca"}, {"nombre_c": "SANTA B\u00c1RBARA", "tipo_c": "Escuela de Educaci\u00f3n Infantil", "calidad": "postal_code", "direccion_cruda": "CL. LA PARADA, S/N, Castelser\u00e1s, Teruel, 44630", "key": "44010148", "lat": 40.9686988, "lng": -0.1401381, "provincia": "Teruel", "direccion": "44630 Castelser\u00e1s, Teruel, Spain", "origen": "GMaps", "localidad": "Castelser\u00e1s"}, {"nombre_c": "RAM\u00d3N Y CAJAL", "tipo_c": "Instituto de Educaci\u00f3n Secundaria", "calidad": "street_address", "direccion_cruda": "CL. RAM\u00d3N PIGNATELLI, 102, Zaragoza, Zaragoza, 50004", "key": "50011550", "lat": 41.6546541, "lng": -0.8903858, "provincia": "Zaragoza", "direccion": "Calle Ram\u00f3n Pignatelli, 102, 50004 Zaragoza, Zaragoza, Spain", "origen": "GMaps", "localidad": "Zaragoza"}, {"nombre_c": "LA PORTALADA", "tipo_c": "Colegio de Educaci\u00f3n Infantil y Primaria", "calidad": "CITY", "direccion_cruda": "CNO. ACCESO DESDE FINAL AVDA. SANTA ANA, Pastriz, Zaragoza, 50195", "key": "50003711", "lat": 41.618856, "lng": -0.784308, "provincia": "Zaragoza", "direccion": ", , Pastriz, Provincia de Zaragoza, Aragon, ", "origen": "MapQuest", "localidad": "Pastriz"}, {"nombre_c": "ESCUELA DE M\u00daSICA", "tipo_c": "Escuela P\u00fablica de M\u00fasica", "calidad": "postal_code", "direccion_cruda": "Cl. San Juan (Casa De Cultura), Almunia de Do\u00f1a Godina (La), Zaragoza, 50100", "key": "50017412", "lat": 41.4633038, "lng": -1.3565692, "provincia": "Zaragoza", "direccion": "50100 La Almunia de Do\u00f1a Godina, Zaragoza, Spain", "origen": "GMaps", "localidad": "Almunia de Do\u00f1a Godina (La)"}, {"nombre_c": "RICARDO MUR", "tipo_c": "Colegio de Educaci\u00f3n Infantil y Primaria", "calidad": "street_address", "direccion_cruda": "Cl. Galicia, 2, Casetas, Zaragoza, 50620", "key": "50005550", "lat": 41.718519, "lng": -1.0250566, "provincia": "Zaragoza", "direccion": "Calle Galicia, 2, 50620 Casetas, Zaragoza, Spain", "origen": "GMaps", "localidad": "Casetas"}, {"nombre_c": "DE FRULA", "tipo_c": "Escuela de Educaci\u00f3n Infantil", "calidad": "street_address", "direccion_cruda": "RONDA SUR, 6, Frula, Huesca, 22269", "key": "22010621", "lat": 41.9093356, "lng": -0.4476302, "provincia": "Huesca", "direccion": "Ronda Sur, 6, 22269 Frula, Huesca, Spain", "origen": "GMaps", "localidad": "Frula"}, {"nombre_c": "SAN MIGUEL", "tipo_c": "Colegio de Educaci\u00f3n Infantil y Primaria", "calidad": "street_address", "direccion_cruda": "Avda. Ib\u00e1\u00f1ez Mart\u00edn, 13, Mora de Rubielos, Teruel, 44400", "key": "44002221", "lat": 40.2498148, "lng": -0.7531186, "provincia": "Teruel", "direccion": "Avenida Ib\u00e1\u00f1ez Mart\u00edn, 13, 44400 Mora de Rubielos, Teruel, Spain", "origen": "GMaps", "localidad": "Mora de Rubielos"}, {"nombre_c": "LA PUR\u00cdSIMA PARA NI\u00d1OS SORDOS", "tipo_c": "Centro Privado de Educaci\u00f3n Especial", "calidad": "street_address", "direccion_cruda": "Cl. Corona De Arag\u00f3n, 54, Zaragoza, Zaragoza, 50009", "key": "50007376", "lat": 41.6448563, "lng": -0.8991499, "provincia": "Zaragoza", "direccion": "Calle Corona De Arag\u00f3n, 54, 50009 Zaragoza, Zaragoza, Spain", "origen": "GMaps", "localidad": "Zaragoza"}, {"nombre_c": "ZARAPEQUES", "tipo_c": "Centro Privado de Educaci\u00f3n Infantil", "calidad": "postal_code", "direccion_cruda": "CL. ENRIQUE VAL, 4-LOCAL, Zaragoza, Zaragoza, 50011", "key": "50018295", "lat": 41.6670654, "lng": -0.9533984, "provincia": "Zaragoza", "direccion": "50011 Zaragoza, Zaragoza, Spain", "origen": "GMaps", "localidad": "Zaragoza"}, {"nombre_c": "LA SOLANA", "tipo_c": "Escuela de Educaci\u00f3n Infantil", "calidad": "postal_code", "direccion_cruda": "CL. LA SOLANA, S/N, Ateca, Zaragoza, 50200", "key": "50018726", "lat": 41.3370218, "lng": -1.8025852, "provincia": "Zaragoza", "direccion": "50200 Ateca, Zaragoza, Spain", "origen": "GMaps", "localidad": "Ateca"}, {"nombre_c": "SANTA ANA", "tipo_c": "Centro Privado de Educaci\u00f3n Infantil Primaria y Secundaria", "calidad": "postal_code", "direccion_cruda": "Cl. Hermana Andresa, S/N, Fraga, Huesca, 22520", "key": "22001899", "lat": 41.4811257, "lng": 0.1869644, "provincia": "Huesca", "direccion": "22520, Huesca, Spain", "origen": "GMaps", "localidad": "Fraga"}, {"nombre_c": "MARCO VALERIO MARCIAL", "tipo_c": "Centro P\u00fablico de Educaci\u00f3n de Personas Adultas", "calidad": "street_address", "direccion_cruda": "P.\u00ba Ram\u00f3n Y Cajal, 1, Calatayud, Zaragoza, 50300", "key": "50010818", "lat": 41.3505123, "lng": -1.6437307, "provincia": "Zaragoza", "direccion": "Paseo Ram\u00f3n y Cajal, 1, 50300 Calatayud, Zaragoza, Spain", "origen": "GMaps", "localidad": "Calatayud"}, {"nombre_c": "SAN MIGUEL", "tipo_c": "Colegio de Educaci\u00f3n Infantil y Primaria", "calidad": "postal_code", "direccion_cruda": "Cl. La Colomina, S/N, Tamarite de Litera, Huesca, 22550", "key": "22004271", "lat": 41.8494373, "lng": 0.403094, "provincia": "Huesca", "direccion": "22550 Tamarite de Litera, Huesca, Spain", "origen": "GMaps", "localidad": "Tamarite de Litera"}, {"nombre_c": "INMACULADA CONCEPCI\u00d3N", "tipo_c": "Guarder\u00eda del Gobierno de Arag\u00f3n", "calidad": "street_address", "direccion_cruda": "CL. Jarque de Moncayo, 5, Zaragoza, Zaragoza, 50012", "key": "50600142", "lat": 41.64981, "lng": -0.89547, "provincia": "Zaragoza", "direccion": "Calle Jarque Moncayo, 5, 50010 Zaragoza, Zaragoza, Spain", "origen": "GMaps", "localidad": "Zaragoza"}, {"nombre_c": "KID'S GARDEN ACTUR", "tipo_c": "Centro Privado de Educaci\u00f3n Infantil", "calidad": "street_address", "direccion_cruda": "Cl. Santiago Lagunas, 1, Zaragoza, Zaragoza, 50018", "key": "50019263", "lat": 41.6687067, "lng": -0.8924946, "provincia": "Zaragoza", "direccion": "Calle Santiago Lagunas, 1, 50018 Zaragoza, Zaragoza, Spain", "origen": "GMaps", "localidad": "Zaragoza"}, {"nombre_c": "LA SABINA", "tipo_c": "Colegio Rural Agrupado", "calidad": "postal_code", "direccion_cruda": "CL. Canal de Monegros s/n, Robres, Huesca, 22252", "key": "22005856", "lat": 41.8690164, "lng": -0.4785495, "provincia": "Huesca", "direccion": "22252 Robres, Huesca, Spain", "origen": "GMaps", "localidad": "Robres"}, {"nombre_c": "CERB\u00cdN", "tipo_c": "Colegio de Educaci\u00f3n Infantil y Primaria", "calidad": "street_address", "direccion_cruda": "Pza. Cabovila, 5, Campo, Huesca, 22450", "key": "22001358", "lat": 42.4097758, "lng": 0.3978018, "provincia": "Huesca", "direccion": "Plaza Cabovila, 5, 22450 Campo, Huesca, Spain", "origen": "GMaps", "localidad": "Campo"}, {"nombre_c": "CODEF", "tipo_c": "Centro Privado de Educaci\u00f3n de Personas Adultas", "calidad": "street_address", "direccion_cruda": "CL. San Roque, 5-7, Zaragoza, Zaragoza, 50017", "key": "50009725", "lat": 41.6521044, "lng": -0.9028155, "provincia": "Zaragoza", "direccion": "Calle San Roque, 5-7, 50010 Zaragoza, Zaragoza, Spain", "origen": "GMaps", "localidad": "Zaragoza"}, {"nombre_c": "ANDARINES", "tipo_c": "Centro Privado de Educaci\u00f3n Infantil", "calidad": "postal_code", "direccion_cruda": "Cl. Mat\u00edas Pastor Sancho, 2 , Blo. 4-5, Zaragoza, Zaragoza, 50015", "key": "50017001", "lat": 41.692694, "lng": -0.8627473, "provincia": "Zaragoza", "direccion": "50015 Zaragoza, Zaragoza, Spain", "origen": "GMaps", "localidad": "Zaragoza"}, {"nombre_c": "SAN GREGORIO", "tipo_c": "Colegio de Educaci\u00f3n Infantil y Primaria", "calidad": "CITY", "direccion_cruda": "Cl. San Gregorio, 55, Onti\u00f1ena, Huesca, 22232", "key": "22003343", "lat": 41.676186, "lng": 0.089176, "provincia": "Huesca", "direccion": ", , Onti\u00f1ena, Provincia de Huesca, Aragon, ", "origen": "MapQuest", "localidad": "Onti\u00f1ena"}, {"nombre_c": "DE AGUAVIVA", "tipo_c": "Escuela de Educaci\u00f3n Infantil", "calidad": "street_address", "direccion_cruda": "AVDA. PARRAS DE CASTELLOTE, 18, Aguaviva, Teruel, 44560", "key": "44010562", "lat": 40.8199496, "lng": -0.201352, "provincia": "Teruel", "direccion": "Avenida Parras de Castellote, 18, 44566 Aguaviva, Teruel, Spain", "origen": "GMaps", "localidad": "Aguaviva"}, {"nombre_c": "DE LUMPIAQUE", "tipo_c": "Escuela de Educaci\u00f3n Infantil", "calidad": "street_address", "direccion_cruda": "CL. Muntadas, 12, Lumpiaque, Zaragoza, 50295", "key": "50019044", "lat": 41.6322448, "lng": -1.3004641, "provincia": "Zaragoza", "direccion": "Calle Muntadas, 12, 50295 Lumpiaque, Zaragoza, Spain", "origen": "GMaps", "localidad": "Lumpiaque"}, {"nombre_c": "LA CUNICA", "tipo_c": "Escuela de Educaci\u00f3n Infantil", "calidad": "postal_code", "direccion_cruda": "CTRA. TORRES DE BERRELL\u00c9N, S/N, Joyosa (La), Zaragoza, 50692", "key": "50018532", "lat": 41.7505898, "lng": -1.0825634, "provincia": "Zaragoza", "direccion": "50692 Zaragoza, Zaragoza, Spain", "origen": "GMaps", "localidad": "Joyosa (La)"}, {"nombre_c": "NUESTRA SE\u00d1ORA DE SAN LORENZO", "tipo_c": "Guarder\u00eda del Gobierno de Arag\u00f3n", "calidad": "street_address", "direccion_cruda": "CL. Ram\u00f3n J. Sender n\u00ba 19, Huesca, Huesca, 22006", "key": "22600072", "lat": 42.1333357, "lng": -0.4025125, "provincia": "Huesca", "direccion": "Calle Ram\u00f3n J Sender, 19, 22005 Huesca, Huesca, Spain", "origen": "GMaps", "localidad": "Huesca"}, {"nombre_c": "PUERTA DE ARAG\u00d3N", "tipo_c": "Colegio Rural Agrupado", "calidad": "street_address", "direccion_cruda": "Cl. Pilar, 12, Ariza, Zaragoza, 50220", "key": "50011318", "lat": 41.290855, "lng": -2.1061411, "provincia": "Zaragoza", "direccion": "Calle del Pilar, 12, 50291 Monreal de Ariza, Zaragoza, Spain", "origen": "GMaps", "localidad": "Ariza"}, {"nombre_c": "DE ALAG\u00d3N", "tipo_c": "Escuela de Educaci\u00f3n Infantil", "calidad": "postal_code", "direccion_cruda": "Avda. de la Portalada, 24, Alag\u00f3n, Zaragoza, 50630", "key": "50017631", "lat": 41.7651038, "lng": -1.1257082, "provincia": "Zaragoza", "direccion": "50630 Alag\u00f3n, Zaragoza, Spain", "origen": "GMaps", "localidad": "Alag\u00f3n"}, {"nombre_c": "ALBADA", "tipo_c": "Centro Privado de Educaci\u00f3n Infantil", "calidad": "postal_code", "direccion_cruda": "CL. MAR\u00cdA MOLINER S/N, Huesca, Huesca, 22004", "key": "22010441", "lat": 42.1404544, "lng": -0.4184093, "provincia": "Huesca", "direccion": "22004 Huesca, Huesca, Spain", "origen": "GMaps", "localidad": "Huesca"}, {"nombre_c": "DE MAS DE LAS MATAS", "tipo_c": "Escuela de Educaci\u00f3n Infantil", "calidad": "postal_code", "direccion_cruda": "CL. Las Escuelas, S/N, Mas de las Matas, Teruel, 44564", "key": "44010628", "lat": 40.8472001, "lng": -0.2713944, "provincia": "Teruel", "direccion": "44564 Mas de las Matas, Teruel, Spain", "origen": "GMaps", "localidad": "Mas de las Matas"}, {"nombre_c": "MONTESSORI", "tipo_c": "Centro Privado de Educaci\u00f3n Infantil", "calidad": "street_address", "direccion_cruda": "Cl. As\u00edn Y Palacios, 18, Zaragoza, Zaragoza, 50009", "key": "50008964", "lat": 41.6368061, "lng": -0.9049808, "provincia": "Zaragoza", "direccion": "Calle As\u00edn y Palacios, 18, 50009 Zaragoza, Zaragoza, Spain", "origen": "GMaps", "localidad": "Zaragoza"}, {"nombre_c": "MIGUEL ARNAUDAS", "tipo_c": "Escuela P\u00fablica de M\u00fasica", "calidad": "route", "direccion_cruda": "Pza. San Antonio, Alag\u00f3n, Zaragoza, 50630", "key": "50017187", "lat": 41.7694987, "lng": -1.1215335, "provincia": "Zaragoza", "direccion": "Plaza San Antonio, 50630 Alag\u00f3n, Zaragoza, Spain", "origen": "GMaps", "localidad": "Alag\u00f3n"}, {"nombre_c": "JUAN XXIII", "tipo_c": "Colegio de Educaci\u00f3n Infantil y Primaria", "calidad": "street_address", "direccion_cruda": "Cl. Juan Xxiii, 2, Zaragoza, Zaragoza, 50010", "key": "50006232", "lat": 41.655318, "lng": -0.8997732, "provincia": "Zaragoza", "direccion": "Calle Juan XXIII, 2, 50010 Zaragoza, Zaragoza, Spain", "origen": "GMaps", "localidad": "Zaragoza"}, {"nombre_c": "BOLANDRINA", "tipo_c": "Centro Privado de Educaci\u00f3n Infantil", "calidad": "postal_code", "direccion_cruda": "Cl. Refugio, 9, Local, Zaragoza, Zaragoza, 50001", "key": "50017229", "lat": 41.6489683, "lng": -0.8782392, "provincia": "Zaragoza", "direccion": "50001 Zaragoza, Zaragoza, Spain", "origen": "GMaps", "localidad": "Zaragoza"}, {"nombre_c": "PALMAS PALMITAS", "tipo_c": "Escuela de Educaci\u00f3n Infantil", "calidad": "postal_code", "direccion_cruda": "AVDA. R\u00cdO EBRO, S/N, Mar\u00eda de Huerva, Zaragoza, 50430", "key": "50018908", "lat": 41.5070187, "lng": -0.9916274, "provincia": "Zaragoza", "direccion": "50430 Mar\u00eda de Huerva, Zaragoza, Spain", "origen": "GMaps", "localidad": "Mar\u00eda de Huerva"}, {"nombre_c": "SANTIAGO AP\u00d3STOL", "tipo_c": "Colegio de Educaci\u00f3n Infantil y Primaria", "calidad": "postal_code", "direccion_cruda": "Cl. Escuelas, S/N, Gra\u00f1\u00e9n, Huesca, 22260", "key": "22002119", "lat": 41.8992478, "lng": -0.3560076, "provincia": "Huesca", "direccion": "22260 Gra\u00f1\u00e9n, Huesca, Spain", "origen": "GMaps", "localidad": "Gra\u00f1\u00e9n"}, {"nombre_c": "ROM\u00c1N GARC\u00cdA", "tipo_c": "Colegio de Educaci\u00f3n Infantil y Primaria", "calidad": "postal_code", "direccion_cruda": "Cl. Ronda G\u00e1rate S/N, Albalate del Arzobispo, Teruel, 44540", "key": "44000121", "lat": 41.138852, "lng": -0.5446912, "provincia": "Teruel", "direccion": "44540 Albalate del Arzobispo, Teruel, Spain", "origen": "GMaps", "localidad": "Albalate del Arzobispo"}, {"nombre_c": "EL PARQUE", "tipo_c": "Escuela de Educaci\u00f3n Infantil", "calidad": "postal_code", "direccion_cruda": "CL. Basiliso Mu\u00f1oz, S/N, Cedrillas, Teruel, 44147", "key": "44010197", "lat": 40.4382751, "lng": -0.8579818, "provincia": "Teruel", "direccion": "44147 Cedrillas, Teruel, Spain", "origen": "GMaps", "localidad": "Cedrillas"}, {"nombre_c": "CUENCA MINERA", "tipo_c": "Centro P\u00fablico de Educaci\u00f3n de Personas Adultas", "calidad": "postal_code", "direccion_cruda": "CL. MANUELA CIRUGEDA, EDIFICO \u00cdTACA, Montalb\u00e1n, Teruel, 44700", "key": "44005001", "lat": 40.8547979, "lng": -0.810357, "provincia": "Teruel", "direccion": "44700 Montalb\u00e1n, Teruel, Spain", "origen": "GMaps", "localidad": "Montalb\u00e1n"}, {"nombre_c": "\u00cdTACA", "tipo_c": "Instituto de Educaci\u00f3n Secundaria", "calidad": "STREET", "direccion_cruda": "Avda de los Estudiantes, 1, Zaragoza, Zaragoza, 50058", "key": "50005793", "lat": 41.670611, "lng": -0.826048, "provincia": "Zaragoza", "direccion": "Avenida de los Estudiantes, Santa Isabel, Zaragoza, Provincia de Zaragoza, Aragon, 50058", "origen": "MapQuest", "localidad": "Zaragoza"}, {"nombre_c": "SAN ANTONIO", "tipo_c": "Centro Privado de Educaci\u00f3n Especial", "calidad": "postal_code", "direccion_cruda": "Cami. Del Buro, 80, Zaragoza, Zaragoza, 50011", "key": "50005616", "lat": 41.6670654, "lng": -0.9533984, "provincia": "Zaragoza", "direccion": "50011 Zaragoza, Zaragoza, Spain", "origen": "GMaps", "localidad": "Zaragoza"}, {"nombre_c": "ASUNCI\u00d3N PA\u00d1ART MONTANER", "tipo_c": "Colegio de Educaci\u00f3n Infantil y Primaria", "calidad": "street_address", "direccion_cruda": "Cl. Cortes De Arag\u00f3n, 1-3, A\u00ednsa, Huesca, 22330", "key": "22000071", "lat": 42.410482, "lng": 0.1383884, "provincia": "Huesca", "direccion": "Calle Cortes de Arag\u00f3n, 3, 22330 A\u00ednsa, Huesca, Spain", "origen": "GMaps", "localidad": "A\u00ednsa"}, {"nombre_c": "SAN JOS\u00c9 DE CALASANZ", "tipo_c": "Centro Privado de Educaci\u00f3n Infantil Primaria y Secundaria", "calidad": "street_address", "direccion_cruda": "Pza. Constituci\u00f3n, 2, Barbastro, Huesca, 22300", "key": "22000779", "lat": 42.0366631, "lng": 0.1235021, "provincia": "Huesca", "direccion": "Plaza Constituci\u00f3n, 2, 22300 Barbastro, Huesca, Spain", "origen": "GMaps", "localidad": "Barbastro"}, {"nombre_c": "EL ENSANCHE", "tipo_c": "Centro Privado de Educaci\u00f3n Infantil", "calidad": "street_address", "direccion_cruda": "Cl. Jos\u00e9 Tor\u00e1n, 4, Teruel, Teruel, 44002", "key": "44010057", "lat": 40.3367268, "lng": -1.1068816, "provincia": "Teruel", "direccion": "Calle Jos\u00e9 Tor\u00e1n, 4, 44002 Teruel, Teruel, Spain", "origen": "GMaps", "localidad": "Teruel"}, {"nombre_c": "XIQUETS", "tipo_c": "Escuela de Educaci\u00f3n Infantil", "calidad": "CITY", "direccion_cruda": "INTERSECCI\u00d3N C/ CABA\u00d1ERA REAL Y C/ JAIME I, Fraga, Huesca, 22520", "key": "22010402", "lat": 41.52068, "lng": 0.351634, "provincia": "Huesca", "direccion": ", , Fraga, Provincia de Huesca, Aragon, ", "origen": "MapQuest", "localidad": "Fraga"}, {"nombre_c": "MIGUEL SERVET", "tipo_c": "Colegio de Educaci\u00f3n Infantil y Primaria", "calidad": "postal_code", "direccion_cruda": "Pza. Valencia, S/N, Fraga, Huesca, 22520", "key": "22001875", "lat": 41.4811257, "lng": 0.1869644, "provincia": "Huesca", "direccion": "22520, Huesca, Spain", "origen": "GMaps", "localidad": "Fraga"}, {"nombre_c": "DE TERUEL", "tipo_c": "Centro de Profesores y Recursos", "calidad": "postal_code", "direccion_cruda": "CL. Ciudad Escolar, s/n, Teruel, Teruel, 44003", "key": "44700025", "lat": 40.3519998, "lng": -1.1137191, "provincia": "Teruel", "direccion": "44003 Teruel, Teruel, Spain", "origen": "GMaps", "localidad": "Teruel"}, {"nombre_c": "DE SAN BLAS", "tipo_c": "Instituto de Formaci\u00f3n Profesional Espec\u00edfica", "calidad": "postal_code", "direccion_cruda": "Bo. San Blas, S/N, San Blas, Teruel, 44195", "key": "44003028", "lat": 40.3538618, "lng": -1.1833043, "provincia": "Teruel", "direccion": "44195 Teruel, Teruel, Spain", "origen": "GMaps", "localidad": "San Blas"}, {"nombre_c": "MIRALBUENO", "tipo_c": "Colegio de Educaci\u00f3n Infantil y Primaria", "calidad": "route", "direccion_cruda": "CL. ENRIQUE VAL, 20, Zaragoza, Zaragoza, 50011", "key": "50018261", "lat": 41.6568655, "lng": -0.9316951, "provincia": "Zaragoza", "direccion": "Calle Enrique Val, 50011 Zaragoza, Zaragoza, Spain", "origen": "GMaps", "localidad": "Zaragoza"}, {"nombre_c": "PABLO BRUNA", "tipo_c": "Escuela P\u00fablica de M\u00fasica", "calidad": "street_address", "direccion_cruda": "Cl. Mayor, 36, Daroca, Zaragoza, 50360", "key": "50010430", "lat": 41.1143073, "lng": -1.4125791, "provincia": "Zaragoza", "direccion": "Calle Mayor, 36, 50360 Daroca, Zaragoza, Spain", "origen": "GMaps", "localidad": "Daroca"}, {"nombre_c": "DE EJEA DE LOS CABALLEROS (SANTA ANASTASIA)", "tipo_c": "Escuela de Educaci\u00f3n Infantil", "calidad": "postal_code", "direccion_cruda": "CL. Nueva, S/N, Santa Anastasia, Zaragoza, 50694", "key": "50018994", "lat": 42.1990981, "lng": -1.3180042, "provincia": "Zaragoza", "direccion": "50694 Ejea de los Caballeros, Zaragoza, Spain", "origen": "GMaps", "localidad": "Santa Anastasia"}, {"nombre_c": "DE UTRILLAS", "tipo_c": "Escuela de Educaci\u00f3n Infantil", "calidad": "postal_code", "direccion_cruda": "CL. CONSTITUCI\u00d3N, S/N, Utrillas, Teruel, 44760", "key": "44010291", "lat": 40.8038614, "lng": -0.8579818, "provincia": "Teruel", "direccion": "44760 Utrillas, Teruel, Spain", "origen": "GMaps", "localidad": "Utrillas"}, {"nombre_c": "V\u00cdCTOR MENDOZA MENDOZA", "tipo_c": "Colegio de Educaci\u00f3n Infantil y Primaria", "calidad": "STREET", "direccion_cruda": "CL. ALMACELLAS, 31, Bin\u00e9far, Huesca, 22500", "key": "22001073", "lat": 41.84291, "lng": 0.298739, "provincia": "Huesca", "direccion": "Calle Almacellas, Binefar, Bin\u00e9far, Provincia de Huesca, Aragon, ", "origen": "MapQuest", "localidad": "Bin\u00e9far"}, {"nombre_c": "VALLE DEL HUECHA", "tipo_c": "Instituto de Educaci\u00f3n Secundaria", "calidad": "street_address", "direccion_cruda": "Avda. De La Libertad, 25, Mall\u00e9n, Zaragoza, 50550", "key": "50011677", "lat": 41.9020852, "lng": -1.4163742, "provincia": "Zaragoza", "direccion": "Avenida de la Libertad, 25, 50550 Mall\u00e9n, Zaragoza, Spain", "origen": "GMaps", "localidad": "Mall\u00e9n"}, {"nombre_c": "BIELLO ARAG\u00d3N", "tipo_c": "Instituto de Educaci\u00f3n Secundaria", "calidad": "street_address", "direccion_cruda": "Cl. Derechos Humanos, 5, Sabi\u00f1\u00e1nigo, Huesca, 22600", "key": "22004891", "lat": 42.5030131, "lng": -0.3616008, "provincia": "Huesca", "direccion": "Calle Derechos Humanos, 5, 22609 Sabi\u00f1\u00e1nigo, Huesca, Spain", "origen": "GMaps", "localidad": "Sabi\u00f1\u00e1nigo"}, {"nombre_c": "DE ARAG\u00d3N", "tipo_c": "Escuela Superior de Conservaci\u00f3n y Restauraci\u00f3n de Bienes Culturales", "calidad": "street_address", "direccion_cruda": "Cl. Coso Alto, 61, Huesca, Huesca, 22003", "key": "22010086", "lat": 42.1405076, "lng": -0.411343, "provincia": "Huesca", "direccion": "Calle Coso Alto, 61, 22003 Huesca, Huesca, Spain", "origen": "GMaps", "localidad": "Huesca"}, {"nombre_c": "PEDRO DE LUNA", "tipo_c": "Instituto de Educaci\u00f3n Secundaria", "calidad": "street_address", "direccion_cruda": "Cl. Universidad, 2, Zaragoza, Zaragoza, 50001", "key": "50008289", "lat": 41.6525762, "lng": -0.8732246, "provincia": "Zaragoza", "direccion": "Calle Universidad, 2, 50001 Zaragoza, Zaragoza, Spain", "origen": "GMaps", "localidad": "Zaragoza"}, {"nombre_c": "RAM\u00d3N Y CAJAL", "tipo_c": "Instituto de Educaci\u00f3n Secundaria", "calidad": "street_address", "direccion_cruda": "Avda. De La Paz, 9, Huesca, Huesca, 22004", "key": "22002508", "lat": 42.1389886, "lng": -0.4157793, "provincia": "Huesca", "direccion": "Avenida de la Paz, 9, 22004 Huesca, Huesca, Spain", "origen": "GMaps", "localidad": "Huesca"}, {"nombre_c": "CAREI", "tipo_c": "Centro de Recursos", "calidad": "street_address", "direccion_cruda": "Cl. San Antonio Abad, 38, Zaragoza, Zaragoza, 50010", "key": "50700240", "lat": 41.6545736, "lng": -0.9062278, "provincia": "Zaragoza", "direccion": "Calle San Antonio Abad, 38, 50010 Zaragoza, Zaragoza, Spain", "origen": "GMaps", "localidad": "Zaragoza"}, {"nombre_c": "VALLE DE BIELSA", "tipo_c": "Escuela de Educaci\u00f3n Infantil", "calidad": "CITY", "direccion_cruda": "CL. CALVARIO, S/N, Bielsa, Huesca, 22350", "key": "22010529", "lat": 42.633555, "lng": 0.218859, "provincia": "Huesca", "direccion": ", , Bielsa, Provincia de Huesca, Aragon, ", "origen": "MapQuest", "localidad": "Bielsa"}, {"nombre_c": "VALLE DE BENASQUE", "tipo_c": "Centro Privado de Educaci\u00f3n Secundaria", "calidad": "postal_code", "direccion_cruda": "Avda .De Luch\u00f3n, S/N, Benasque, Huesca, 22440", "key": "22006137", "lat": 42.6474465, "lng": 0.5825359, "provincia": "Huesca", "direccion": "22440 Benasque, Huesca, Spain", "origen": "GMaps", "localidad": "Benasque"}, {"nombre_c": "@S`CRI@S", "tipo_c": "Escuela de Educaci\u00f3n Infantil", "calidad": "postal_code", "direccion_cruda": "AVDA. DEL ROSARIO Y C/ DE LAS CIENCIAS, Almud\u00e9var, Huesca, 22270", "key": "22010360", "lat": 42.0966753, "lng": -0.5446912, "provincia": "Huesca", "direccion": "22270 Almud\u00e9var, Huesca, Spain", "origen": "GMaps", "localidad": "Almud\u00e9var"}, {"nombre_c": "GARNACHICA", "tipo_c": "Escuela de Educaci\u00f3n Infantil", "calidad": "postal_code", "direccion_cruda": "PARAJE LALOZ, Ainz\u00f3n, Zaragoza, 50570", "key": "50018714", "lat": 41.7803369, "lng": -1.5305465, "provincia": "Zaragoza", "direccion": "50570 Ainz\u00f3n, Zaragoza, Spain", "origen": "GMaps", "localidad": "Ainz\u00f3n"}, {"nombre_c": "DOCTOR AZ\u00daA", "tipo_c": "Colegio de Educaci\u00f3n Infantil y Primaria", "calidad": "street_address", "direccion_cruda": "Cl. Pedro Iii El Grande, 4, Zaragoza, Zaragoza, 50009", "key": "50008368", "lat": 41.6361119, "lng": -0.9034273, "provincia": "Zaragoza", "direccion": "Calle Pedro III el Grande, 4, 50009 Zaragoza, Zaragoza, Spain", "origen": "GMaps", "localidad": "Zaragoza"}, {"nombre_c": "MIGUEL HERN\u00c1NDEZ", "tipo_c": "Centro P\u00fablico de Educaci\u00f3n de Personas Adultas", "calidad": "street_address", "direccion_cruda": "Cl. Alfonso De Arag\u00f3n, 12, Huesca, Huesca, 22002", "key": "22004955", "lat": 42.1398504, "lng": -0.4081463, "provincia": "Huesca", "direccion": "Calle Alfonso I de Arag\u00f3n, 12, 22002 Huesca, Huesca, Spain", "origen": "GMaps", "localidad": "Huesca"}, {"nombre_c": "PARQUE BRUIL", "tipo_c": "Escuela de Educaci\u00f3n Infantil", "calidad": "route", "direccion_cruda": "CL. Vicente L\u00f3pez Abad\u00eda, 4, Zaragoza, Zaragoza, 50002", "key": "50019135", "lat": 41.6518453, "lng": -0.8673399, "provincia": "Zaragoza", "direccion": "Calle Vicente L\u00f3pez Abad\u00eda, 50002 Zaragoza, Zaragoza, Spain", "origen": "GMaps", "localidad": "Zaragoza"}, {"nombre_c": "PARQUE EUROPA", "tipo_c": "Colegio de Educaci\u00f3n Infantil y Primaria", "calidad": "postal_code", "direccion_cruda": "CL. Tenerife, s/n, Utebo, Zaragoza, 50180", "key": "50017451", "lat": 41.7115407, "lng": -0.9964085, "provincia": "Zaragoza", "direccion": "50180 Utebo, Zaragoza, Spain", "origen": "GMaps", "localidad": "Utebo"}, {"nombre_c": "LA CANTERA", "tipo_c": "Escuela de Educaci\u00f3n Infantil", "calidad": "route", "direccion_cruda": "CL. LA ALEGR\u00cdA, 6, Tierz, Huesca, 22192", "key": "22010244", "lat": 42.1346588, "lng": -0.3545655, "provincia": "Huesca", "direccion": "Calle de la Alegr\u00eda, 22192 Tierz, Huesca, Spain", "origen": "GMaps", "localidad": "Tierz"}, {"nombre_c": "DE ESCATR\u00d3N", "tipo_c": "Escuela de Educaci\u00f3n Infantil", "calidad": "street_address", "direccion_cruda": "CL. ESCUELAS, 2, Escatr\u00f3n, Zaragoza, 50790", "key": "50017825", "lat": 41.2896632, "lng": -0.323394, "provincia": "Zaragoza", "direccion": "Calle Escuelas, 2, 50790 Escatr\u00f3n, Zaragoza, Spain", "origen": "GMaps", "localidad": "Escatr\u00f3n"}, {"nombre_c": "ARI\u00d1O-ALLOZA", "tipo_c": "Colegio Rural Agrupado", "calidad": "street_address", "direccion_cruda": "Cl. Teruel, 10, Ari\u00f1o, Teruel, 44547", "key": "44004720", "lat": 41.0311032, "lng": -0.5948973, "provincia": "Teruel", "direccion": "Calle Teruel, 10, 44547 Ari\u00f1o, Teruel, Spain", "origen": "GMaps", "localidad": "Ari\u00f1o"}, {"nombre_c": "ZAGALICOS", "tipo_c": "Escuela de Educaci\u00f3n Infantil", "calidad": "route", "direccion_cruda": "CL. Tejero, S/N, Aguar\u00f3n, Zaragoza, 50408", "key": "50019032", "lat": 41.3403809, "lng": -1.2681212, "provincia": "Zaragoza", "direccion": "Calle Tejero, 50408 Aguar\u00f3n, Zaragoza, Spain", "origen": "GMaps", "localidad": "Aguar\u00f3n"}, {"nombre_c": "GOYA", "tipo_c": "Colegio Rural Agrupado", "calidad": "street_address", "direccion_cruda": "Pza. Escuelas, 3, Caminreal, Teruel, 44350", "key": "44004689", "lat": 40.8384698, "lng": -1.3251589, "provincia": "Teruel", "direccion": "Plaza las Escuelas, 3, 44350 Caminreal, Teruel, Spain", "origen": "GMaps", "localidad": "Caminreal"}, {"nombre_c": "PIVOT POINT CENTER ROMERO II", "tipo_c": "Centro Privado de Formaci\u00f3n Profesional Espec\u00edfica", "calidad": "postal_code", "direccion_cruda": "P.\u00ba Mar\u00eda Agunt\u00edn, 101-103, Zaragoza, Zaragoza, 50003", "key": "50017357", "lat": 41.6612847, "lng": -0.8973142, "provincia": "Zaragoza", "direccion": "50003 Zaragoza, Zaragoza, Spain", "origen": "GMaps", "localidad": "Zaragoza"}, {"nombre_c": "SOBRARBE", "tipo_c": "Centro P\u00fablico de Educaci\u00f3n de Personas Adultas", "calidad": "street_address", "direccion_cruda": "Cl. Samper, 1, Bolta\u00f1a, Huesca, 22340", "key": "22005558", "lat": 42.4438511, "lng": 0.0696061, "provincia": "Huesca", "direccion": "Calle Samper, 1, 22340 Bolta\u00f1a, Huesca, Spain", "origen": "GMaps", "localidad": "Bolta\u00f1a"}, {"nombre_c": "NERT\u00d3BRIGA", "tipo_c": "Escuela de Educaci\u00f3n Infantil", "calidad": "postal_code", "direccion_cruda": "CL. JOAQU\u00cdN ARTIGAS \"EL P\u00cdO\", S/N, Ricla, Zaragoza, 50270", "key": "50017989", "lat": 41.5324759, "lng": -1.4241426, "provincia": "Zaragoza", "direccion": "50270 Ricla, Zaragoza, Spain", "origen": "GMaps", "localidad": "Ricla"}, {"nombre_c": "COMUNIDAD DE DAROCA", "tipo_c": "Instituto de Educaci\u00f3n Secundaria", "calidad": "route", "direccion_cruda": "Cl. Barranco De Luzbel, S/N, Daroca, Zaragoza, 50360", "key": "50010284", "lat": 41.1093362, "lng": -1.4232853, "provincia": "Zaragoza", "direccion": "Calle Barranco Luzbel, 50360 Daroca, Zaragoza, Spain", "origen": "GMaps", "localidad": "Daroca"}, {"nombre_c": "VALLE DEL JILOCA", "tipo_c": "Instituto de Educaci\u00f3n Secundaria", "calidad": "street_address", "direccion_cruda": "Avda. Zaragoza, 42, Calamocha, Teruel, 44200", "key": "44004045", "lat": 40.9218138, "lng": -1.2957223, "provincia": "Teruel", "direccion": "Calle Zaragoza, 42, 44200 Calamocha, Teruel, Spain", "origen": "GMaps", "localidad": "Calamocha"}, {"nombre_c": "LOS ALBARES", "tipo_c": "Colegio de Educaci\u00f3n Infantil y Primaria", "calidad": "postal_code", "direccion_cruda": "ROSAL\u00cdA DE CASTRO, 2, Puebla de Alfind\u00e9n (La), Zaragoza, 50171", "key": "50004004", "lat": 41.6336763, "lng": -0.7485282, "provincia": "Zaragoza", "direccion": "50171 La Puebla de Alfind\u00e9n, Zaragoza, Spain", "origen": "GMaps", "localidad": "Puebla de Alfind\u00e9n (La)"}, {"nombre_c": "DE GURREA DE G\u00c1LLEGO", "tipo_c": "Escuela de Educaci\u00f3n Infantil", "calidad": "street_address", "direccion_cruda": "CL. CERVANTES N\u00ba 1, Gurrea de G\u00e1llego, Huesca, 22280", "key": "22010438", "lat": 42.0156434, "lng": -0.763277, "provincia": "Huesca", "direccion": "Calle Cervantes, 1, 22280 Gurrea de G\u00e1llego, Huesca, Spain", "origen": "GMaps", "localidad": "Gurrea de G\u00e1llego"}, {"nombre_c": "CENTRO DE FORMACI\u00d3N EDUCATIVA FUNDACI\u00d3N ALCORAZ", "tipo_c": "Centro Privado Autorizado de Ense\u00f1anzas Deportivas", "calidad": "postal_code", "direccion_cruda": "Camino del alto Cocor\u00f3n, s/n Estadio El Alcoraz, puerta 3, Huesca, Huesca, 22004", "key": "22010840", "lat": 42.1404544, "lng": -0.4184093, "provincia": "Huesca", "direccion": "22004 Huesca, Huesca, Spain", "origen": "GMaps", "localidad": "Huesca"}, {"nombre_c": "SNOOPY", "tipo_c": "Centro Privado de Educaci\u00f3n Infantil", "calidad": "street_address", "direccion_cruda": "CL. TENOR MAR\u00cdN, 6-A, Teruel, Teruel, 44002", "key": "44010653", "lat": 40.3339329, "lng": -1.0997482, "provincia": "Teruel", "direccion": "Calle Tenor Mar\u00edn, 6A, 44002 Teruel, Teruel, Spain", "origen": "GMaps", "localidad": "Teruel"}, {"nombre_c": "JOS\u00c9 MANUEL BLECUA", "tipo_c": "Colegio de Educaci\u00f3n Infantil y Primaria", "calidad": "postal_code", "direccion_cruda": "Avda. Autonom\u00eda De Arag\u00f3n, S/N, Alcolea de Cinca, Huesca, 22410", "key": "22000251", "lat": 41.7407016, "lng": 0.0933686, "provincia": "Huesca", "direccion": "22410 Alcolea de Cinca, Huesca, Spain", "origen": "GMaps", "localidad": "Alcolea de Cinca"}, {"nombre_c": "EL MANZANO", "tipo_c": "Centro Privado de Educaci\u00f3n Infantil", "calidad": "postal_code", "direccion_cruda": "Cl. Emilia Pardo Baz\u00e1n, 12- Local-, Zaragoza, Zaragoza, 50018", "key": "50017345", "lat": 41.6725454, "lng": -0.8913523, "provincia": "Zaragoza", "direccion": "50018 Zaragoza, Zaragoza, Spain", "origen": "GMaps", "localidad": "Zaragoza"}, {"nombre_c": "VENTA DEL OLIVAR", "tipo_c": "Centro Rural de Innovaci\u00f3n Educativa", "calidad": "postal_code", "direccion_cruda": "PLAZA MAYOR, S/N, Zaragoza, Zaragoza, 50011", "key": "50700239", "lat": 41.6670654, "lng": -0.9533984, "provincia": "Zaragoza", "direccion": "50011 Zaragoza, Zaragoza, Spain", "origen": "GMaps", "localidad": "Zaragoza"}, {"nombre_c": "SIERRA PALOMERA", "tipo_c": "Instituto de Educaci\u00f3n Secundaria", "calidad": "postal_code", "direccion_cruda": "Cl. Partida El Carro, S/N, Cella, Teruel, 44370", "key": "44005128", "lat": 40.4446851, "lng": -1.2698475, "provincia": "Teruel", "direccion": "44370, Teruel, Spain", "origen": "GMaps", "localidad": "Cella"}, {"nombre_c": "LOS MONCHONES", "tipo_c": "Escuela de Educaci\u00f3n Infantil", "calidad": "street_address", "direccion_cruda": "CL. DIEGO RAMELLORE, 20, Valdealgorfa, Teruel, 44594", "key": "44010124", "lat": 40.987347, "lng": -0.0336307, "provincia": "Teruel", "direccion": "Calle Diego Ramellore, 20, 44594 Valdealgorfa, Teruel, Spain", "origen": "GMaps", "localidad": "Valdealgorfa"}, {"nombre_c": "ELAIOS", "tipo_c": "Instituto de Educaci\u00f3n Secundaria", "calidad": "postal_code", "direccion_cruda": "Andador Pilar Cuartero Molinero, 3, Zaragoza, Zaragoza, 50018", "key": "50010727", "lat": 41.6725454, "lng": -0.8913523, "provincia": "Zaragoza", "direccion": "50018 Zaragoza, Zaragoza, Spain", "origen": "GMaps", "localidad": "Zaragoza"}, {"nombre_c": "SANTO CRISTO DE SANTIAGO", "tipo_c": "Colegio de Educaci\u00f3n Infantil y Primaria", "calidad": "postal_code", "direccion_cruda": "CL. SAINT PIERRE D' OL\u00c8RON, 12, Cari\u00f1ena, Zaragoza, 50400", "key": "50001301", "lat": 41.3349004, "lng": -1.1929114, "provincia": "Zaragoza", "direccion": "50400 Cari\u00f1ena, Zaragoza, Spain", "origen": "GMaps", "localidad": "Cari\u00f1ena"}, {"nombre_c": "TOSOS", "tipo_c": "Colegio de Educaci\u00f3n Infantil y Primaria", "calidad": "street_address", "direccion_cruda": "Ctra. Cari\u00f1ena, 12, Tosos, Zaragoza, 50154", "key": "50004879", "lat": 41.3160322, "lng": -1.0713009, "provincia": "Zaragoza", "direccion": "Avenida de Cari\u00f1ena, 12, 50154 Tosos, Zaragoza, Spain", "origen": "GMaps", "localidad": "Tosos"}, {"nombre_c": "JOS\u00c9 MANUEL BLECUA", "tipo_c": "Instituto de Educaci\u00f3n Secundaria", "calidad": "street_address", "direccion_cruda": "Cl. Cuarta Avenida, 13, Zaragoza, Zaragoza, 50007", "key": "50009166", "lat": 41.624863, "lng": -0.8790846, "provincia": "Zaragoza", "direccion": "Calle Cuarta Avenida, 13, 50007 Zaragoza, Zaragoza, Spain", "origen": "GMaps", "localidad": "Zaragoza"}, {"nombre_c": "EL MIRADOR", "tipo_c": "Colegio Rural Agrupado", "calidad": "postal_code", "direccion_cruda": "Cl. Torruntero, S/N, Moros, Zaragoza, 50215", "key": "50011173", "lat": 41.3965285, "lng": -1.8415871, "provincia": "Zaragoza", "direccion": "50215 Moros, Zaragoza, Spain", "origen": "GMaps", "localidad": "Moros"}, {"nombre_c": "MARIANO CASTILLO", "tipo_c": "Colegio de Educaci\u00f3n Infantil y Primaria", "calidad": "route", "direccion_cruda": "Cl. Calera, 30, Villamayor, Zaragoza, 50162", "key": "50005872", "lat": 41.6864764, "lng": -0.768436, "provincia": "Zaragoza", "direccion": "Calle Calera, 50162 Villamayor, Zaragoza, Spain", "origen": "GMaps", "localidad": "Villamayor"}, {"nombre_c": "GASC\u00d3N Y MAR\u00cdN", "tipo_c": "Colegio de Educaci\u00f3n Infantil y Primaria", "calidad": "street_address", "direccion_cruda": "Pza. de los Sitios, 4, Zaragoza, Zaragoza, 50001", "key": "50005975", "lat": 41.6493879, "lng": -0.8782884, "provincia": "Zaragoza", "direccion": "Plaza los Sitios, 4, 50001 Zaragoza, Zaragoza, Spain", "origen": "GMaps", "localidad": "Zaragoza"}, {"nombre_c": "SIGLO XXI", "tipo_c": "Instituto de Educaci\u00f3n Secundaria", "calidad": "postal_code", "direccion_cruda": "Avda. Virgen Del Pilar, S/N, Pedrola, Zaragoza, 50690", "key": "50011070", "lat": 41.7739731, "lng": -1.2313618, "provincia": "Zaragoza", "direccion": "50690 Pedrola, Zaragoza, Spain", "origen": "GMaps", "localidad": "Pedrola"}, {"nombre_c": "BAJO ARAG\u00d3N", "tipo_c": "Centro P\u00fablico Integrado de Formaci\u00f3n Profesional", "calidad": "street_address", "direccion_cruda": "CL. Jos\u00e9 Pardo Sastr\u00f3n, 1, Alca\u00f1iz, Teruel, ", "key": "44010537", "lat": 41.0520244, "lng": -0.1300383, "provincia": "Teruel", "direccion": "Calle Jos\u00e9 Pardo Sastr\u00f3n, 1, 44600 Alca\u00f1iz, Teruel, Spain", "origen": "GMaps", "localidad": "Alca\u00f1iz"}, {"nombre_c": "SAN BERNARDO", "tipo_c": "Centro Privado de Educaci\u00f3n Infantil Primaria y Secundaria", "calidad": "street_address", "direccion_cruda": "Avda. Monreal, 14, Huesca, Huesca, 22003", "key": "22002430", "lat": 42.1422998, "lng": -0.4123166, "provincia": "Huesca", "direccion": "Avenida Monreal, 14, 22003 Huesca, Huesca, Spain", "origen": "GMaps", "localidad": "Huesca"}, {"nombre_c": "DEL MEZQU\u00cdN", "tipo_c": "Colegio Rural Agrupado", "calidad": "street_address", "direccion_cruda": "Cl. Mayor Alta, 69, Castelser\u00e1s, Teruel, 44630", "key": "44004811", "lat": 40.9788519, "lng": -0.1445923, "provincia": "Teruel", "direccion": "Calle Mayor Alta, 69, 44630 Castelser\u00e1s, Teruel, Spain", "origen": "GMaps", "localidad": "Castelser\u00e1s"}, {"nombre_c": "RAM\u00d3N Y CAJAL", "tipo_c": "Colegio de Educaci\u00f3n Infantil y Primaria", "calidad": "postal_code", "direccion_cruda": "CL. CAMINO DE ALMONACID S/N, Alpartir, Zaragoza, 50109", "key": "50000436", "lat": 41.4230436, "lng": -1.3758649, "provincia": "Zaragoza", "direccion": "50109 Alpartir, Zaragoza, Spain", "origen": "GMaps", "localidad": "Alpartir"}, {"nombre_c": "LA HUECHA", "tipo_c": "Colegio Rural Agrupado", "calidad": "street_address", "direccion_cruda": "Pza. Arag\u00f3n, 12, Magall\u00f3n, Zaragoza, 50520", "key": "50011379", "lat": 41.8310424, "lng": -1.4605551, "provincia": "Zaragoza", "direccion": "Plaza Arag\u00f3n, 12, 50520 Magall\u00f3n, Zaragoza, Spain", "origen": "GMaps", "localidad": "Magall\u00f3n"}, {"nombre_c": "JOAQU\u00cdN COSTA", "tipo_c": "Instituto de Educaci\u00f3n Secundaria", "calidad": "route", "direccion_cruda": "Avda. Del Ej\u00e9rcito, S/N, Cari\u00f1ena, Zaragoza, 50400", "key": "50001349", "lat": 41.3381073, "lng": -1.2262347, "provincia": "Zaragoza", "direccion": "Avenida del Ej\u00e9rcito, 50400 Cari\u00f1ena, Zaragoza, Spain", "origen": "GMaps", "localidad": "Cari\u00f1ena"}, {"nombre_c": "DE CELLA", "tipo_c": "Centro P\u00fablico de Educaci\u00f3n de Personas Adultas", "calidad": "street_address", "direccion_cruda": "Cl. S\u00e1nchez Motos, 64, Cella, Teruel, 44370", "key": "44004951", "lat": 40.4527858, "lng": -1.2862095, "provincia": "Teruel", "direccion": "Calle S\u00e1nchez de Motos, 64, 44370 Cella, Teruel, Spain", "origen": "GMaps", "localidad": "Cella"}, {"nombre_c": "BAJO ARAG\u00d3N", "tipo_c": "Instituto de Educaci\u00f3n Secundaria", "calidad": "postal_code", "direccion_cruda": "Cl. Jos\u00e9 Pardo Sastr\u00f3n, S/N, Alca\u00f1iz, Teruel, 44600", "key": "44005177", "lat": 41.0795661, "lng": -0.1869644, "provincia": "Teruel", "direccion": "44600 Alca\u00f1iz, Teruel, Spain", "origen": "GMaps", "localidad": "Alca\u00f1iz"}, {"nombre_c": "MIGUEL SERVET", "tipo_c": "Colegio de Educaci\u00f3n Infantil y Primaria", "calidad": "postal_code", "direccion_cruda": "Cl. \u00danica, S/N, Seneg\u00fc\u00e9, Huesca, 22666", "key": "22003926", "lat": 42.5553546, "lng": -0.3418927, "provincia": "Huesca", "direccion": "22666 Sabi\u00f1\u00e1nigo, Huesca, Spain", "origen": "GMaps", "localidad": "Seneg\u00fc\u00e9"}, {"nombre_c": "OCTAVUS", "tipo_c": "Colegio de Educaci\u00f3n Infantil y Primaria", "calidad": "street_address", "direccion_cruda": "CL. Pablo Ruiz Picasso 9, Utebo, Zaragoza, 50180", "key": "50018121", "lat": 41.704088, "lng": -0.996161, "provincia": "Zaragoza", "direccion": "Calle Pablo Ruiz Picasso, 9, 50180 Utebo, Zaragoza, Spain", "origen": "GMaps", "localidad": "Utebo"}, {"nombre_c": "MAR\u00cdA AUXILIADORA", "tipo_c": "Centro Privado de Educaci\u00f3n Infantil Primaria y Secundaria", "calidad": "postal_code", "direccion_cruda": "Cl. Morn\u00e9s, 14, Zaragoza, Zaragoza, 50007", "key": "50007017", "lat": 41.537857, "lng": -0.8865834, "provincia": "Zaragoza", "direccion": "50007 Zaragoza, Zaragoza, Spain", "origen": "GMaps", "localidad": "Zaragoza"}, {"nombre_c": "SAN ROQUE", "tipo_c": "Colegio de Educaci\u00f3n Infantil y Primaria", "calidad": "postal_code", "direccion_cruda": "AVDA. de Zaragoza s/n, Mar\u00eda de Huerva, Zaragoza, 50430", "key": "50017916", "lat": 41.5070187, "lng": -0.9916274, "provincia": "Zaragoza", "direccion": "50430 Mar\u00eda de Huerva, Zaragoza, Spain", "origen": "GMaps", "localidad": "Mar\u00eda de Huerva"}, {"nombre_c": "EL DUENDE DEL BOSQUE", "tipo_c": "Centro Privado de Educaci\u00f3n Infantil", "calidad": "street_address", "direccion_cruda": "CL. SANTIAGO CASTILLO, 4, Casetas, Zaragoza, 50620", "key": "50017850", "lat": 41.7180593, "lng": -1.0251408, "provincia": "Zaragoza", "direccion": "Calle de D. Santiago Castillo, 4, 50620 Zaragoza, Zaragoza, Spain", "origen": "GMaps", "localidad": "Casetas"}, {"nombre_c": "Cuna del Jiloca", "tipo_c": "Colegio Rural Agrupado", "calidad": "street_address", "direccion_cruda": "Cl. Espa\u00f1a, 10, Santa Eulalia, Teruel, 44360", "key": "44005074", "lat": 40.566241, "lng": -1.3169888, "provincia": "Teruel", "direccion": "Calle Espa\u00f1a, 10, 44360 Santa Eulalia, Teruel, Spain", "origen": "GMaps", "localidad": "Santa Eulalia"}, {"nombre_c": "MAESTRAZGO G\u00daDAR", "tipo_c": "Colegio Rural Agrupado", "calidad": "postal_code", "direccion_cruda": "Cl. El Vall, 16, Mosqueruela, Teruel, 44410", "key": "44004616", "lat": 40.4100752, "lng": -0.4313729, "provincia": "Teruel", "direccion": "44410 Mosqueruela, Teruel, Spain", "origen": "GMaps", "localidad": "Mosqueruela"}, {"nombre_c": "LA ALEGR\u00cdA", "tipo_c": "Colegio de Educaci\u00f3n Especial", "calidad": "postal_code", "direccion_cruda": "Cl. Cinca, S/N, Monz\u00f3n, Huesca, 22400", "key": "22005157", "lat": 41.899614, "lng": 0.2057108, "provincia": "Huesca", "direccion": "22400 Monz\u00f3n, Huesca, Spain", "origen": "GMaps", "localidad": "Monz\u00f3n"}, {"nombre_c": "NTRA. SRA. DEL CARMEN Y SAN JOS\u00c9", "tipo_c": "Centro Privado de Educaci\u00f3n Infantil Primaria y Secundaria", "calidad": "street_address", "direccion_cruda": "Cl. Santa In\u00e9s, 1, Zaragoza, Zaragoza, 50003", "key": "50007157", "lat": 41.6560545, "lng": -0.8911259, "provincia": "Zaragoza", "direccion": "Calle Santa Ines, 1, 50003 Zaragoza, Zaragoza, Spain", "origen": "GMaps", "localidad": "Zaragoza"}, {"nombre_c": "DE PA\u00daLES DE SARSA", "tipo_c": "Colegio de Educaci\u00f3n Infantil y Primaria", "calidad": "CITY", "direccion_cruda": "Cl. Escuelas, S/N, Pa\u00fales de Sarsa, Huesca, 22149", "key": "22005431", "lat": 42.304649, "lng": 0.040836, "provincia": "Huesca", "direccion": ", , Paules de Sarsa, Provincia de Huesca, Aragon, ", "origen": "MapQuest", "localidad": "Pa\u00fales de Sarsa"}, {"nombre_c": "EMILIO JIMENO", "tipo_c": "Instituto de Educaci\u00f3n Secundaria", "calidad": "route", "direccion_cruda": "Cl. R\u00edo Perejiles, 2, Calatayud, Zaragoza, 50300", "key": "50001179", "lat": 41.357852, "lng": -1.6366407, "provincia": "Zaragoza", "direccion": "Calle R\u00edo Perejiles, 50300 Calatayud, Zaragoza, Spain", "origen": "GMaps", "localidad": "Calatayud"}, {"nombre_c": "CINCA MEDIO", "tipo_c": "Centro P\u00fablico de Educaci\u00f3n de Personas Adultas", "calidad": "postal_code", "direccion_cruda": "Pza. Sto. Domingo, 6, Monz\u00f3n, Huesca, 22400", "key": "22005480", "lat": 41.899614, "lng": 0.2057108, "provincia": "Huesca", "direccion": "22400 Monz\u00f3n, Huesca, Spain", "origen": "GMaps", "localidad": "Monz\u00f3n"}, {"nombre_c": "DE VALDERROBRES", "tipo_c": "Centro P\u00fablico de Educaci\u00f3n de Personas Adultas", "calidad": "postal_code", "direccion_cruda": "Avda. Gral. Gutierrez Mellado, S/N, Valderrobres, Teruel, 44580", "key": "44004884", "lat": 40.8575596, "lng": 0.1307797, "provincia": "Teruel", "direccion": "44580 Valderrobres, Teruel, Spain", "origen": "GMaps", "localidad": "Valderrobres"}, {"nombre_c": "DE GRA\u00d1\u00c9N", "tipo_c": "Escuela de Educaci\u00f3n Infantil", "calidad": "street_address", "direccion_cruda": "CL. JUAN XXIII, 6, Gra\u00f1\u00e9n, Huesca, 22260", "key": "22010669", "lat": 41.9419123, "lng": -0.3670259, "provincia": "Huesca", "direccion": "Calle Juan XXIII, 6, 22260 Gra\u00f1\u00e9n, Huesca, Spain", "origen": "GMaps", "localidad": "Gra\u00f1\u00e9n"}, {"nombre_c": "GARRAPINI\u00d1OS", "tipo_c": "Centro Privado de Educaci\u00f3n Infantil", "calidad": "street_address", "direccion_cruda": "Cl. Bar\u00f3n De La Linde, 14, Garrapinillos, Zaragoza, 50190", "key": "50011771", "lat": 41.681511, "lng": -1.0242231, "provincia": "Zaragoza", "direccion": "Calle Bar\u00f3n de la Linde, 14, 50190 Garrapinillos, Zaragoza, Spain", "origen": "GMaps", "localidad": "Garrapinillos"}, {"nombre_c": "LAS VI\u00d1AS", "tipo_c": "Colegio Rural Agrupado", "calidad": "route", "direccion_cruda": "Afueras s/n, Fuendejal\u00f3n, Zaragoza, 50570", "key": "50011291", "lat": 41.7629975, "lng": -1.4715341, "provincia": "Zaragoza", "direccion": "Diseminado Afueras, 50529 Fuendejal\u00f3n, Zaragoza, Spain", "origen": "GMaps", "localidad": "Fuendejal\u00f3n"}, {"nombre_c": "SANTA ENGRACIA", "tipo_c": "Colegio de Educaci\u00f3n Infantil y Primaria", "calidad": "postal_code", "direccion_cruda": "Cl. Ronda De Mediod\u00eda, S/N, Santa Engracia, Zaragoza, 50669", "key": "50008782", "lat": 41.9717233, "lng": -1.3083685, "provincia": "Zaragoza", "direccion": "50669 Tauste, Zaragoza, Spain", "origen": "GMaps", "localidad": "Santa Engracia"}, {"nombre_c": "RIBERA DEL CINCA", "tipo_c": "Colegio Rural Agrupado", "calidad": "postal_code", "direccion_cruda": "Cl. Arrabal Del Norte, S/N, Torrente de Cinca, Huesca, 22590", "key": "22005807", "lat": 41.4608288, "lng": 0.3183792, "provincia": "Huesca", "direccion": "22590 Torrente de Cinca, Huesca, Spain", "origen": "GMaps", "localidad": "Torrente de Cinca"}, {"nombre_c": "SAN JOS\u00c9 DE CALASANZ", "tipo_c": "Colegio de Educaci\u00f3n Infantil y Primaria", "calidad": "postal_code", "direccion_cruda": "Cl. Eduardo Salvador Hernaz, 43, Zaragoza, Zaragoza, 50008", "key": "50006153", "lat": 41.641489, "lng": -0.8782392, "provincia": "Zaragoza", "direccion": "50008 Zaragoza, Zaragoza, Spain", "origen": "GMaps", "localidad": "Zaragoza"}, {"nombre_c": "PEDUGUINES", "tipo_c": "Centro Privado de Educaci\u00f3n Infantil", "calidad": "postal_code", "direccion_cruda": "CL. MEDIOD\u00cdA, 5-7; BAJOS, Puebla de Alfind\u00e9n (La), Zaragoza, 50171", "key": "50018490", "lat": 41.6336763, "lng": -0.7485282, "provincia": "Zaragoza", "direccion": "50171 La Puebla de Alfind\u00e9n, Zaragoza, Spain", "origen": "GMaps", "localidad": "Puebla de Alfind\u00e9n (La)"}, {"nombre_c": "RAM\u00d3N J. SENDER", "tipo_c": "Instituto de Educaci\u00f3n Secundaria", "calidad": "postal_code", "direccion_cruda": "P.\u00ba De La Constituci\u00f3n, S/N, Fraga, Huesca, 22520", "key": "22001917", "lat": 41.4811257, "lng": 0.1869644, "provincia": "Huesca", "direccion": "22520, Huesca, Spain", "origen": "GMaps", "localidad": "Fraga"}, {"nombre_c": "SAGRADO CORAZ\u00d3N-MONCAYO", "tipo_c": "Centro Privado de Educaci\u00f3n Infantil Primaria y Secundaria", "calidad": "postal_code", "direccion_cruda": "Juan Pablo II, 58, Zaragoza, Zaragoza, 50009", "key": "50011100", "lat": 41.640049, "lng": -0.9032769, "provincia": "Zaragoza", "direccion": "50009 Zaragoza, Zaragoza, Spain", "origen": "GMaps", "localidad": "Zaragoza"}, {"nombre_c": "AUGUSTA B\u00cdLBILIS", "tipo_c": "Colegio de Educaci\u00f3n Infantil y Primaria", "calidad": "route", "direccion_cruda": "Cl. Arag\u00f3n, S/N, Calatayud, Zaragoza, 50300", "key": "50008666", "lat": 41.2063772, "lng": -1.5161331, "provincia": "Zaragoza", "direccion": "Carretera Daroca Calatayud, 50391 Mont\u00f3n, Zaragoza, Spain", "origen": "GMaps", "localidad": "Calatayud"}, {"nombre_c": "DE TERUEL (SAN BLAS)", "tipo_c": "Escuela de Educaci\u00f3n Infantil", "calidad": "postal_code", "direccion_cruda": "CL. LA IGLESIA, S/N, San Blas, Teruel, 44195", "key": "44010380", "lat": 40.3538618, "lng": -1.1833043, "provincia": "Teruel", "direccion": "44195 Teruel, Teruel, Spain", "origen": "GMaps", "localidad": "San Blas"}, {"nombre_c": "SALESIANO NTRA. SRA.DEL PILAR", "tipo_c": "Centro Privado de Educaci\u00f3n Infantil Primaria y Secundaria", "calidad": "street_address", "direccion_cruda": "Cl. Mar\u00eda Auxiliadora, 57, Zaragoza, Zaragoza, 50009", "key": "50007236", "lat": 41.6450384, "lng": -0.9036834, "provincia": "Zaragoza", "direccion": "Calle Mar\u00eda Auxiliadora, 57, 50009 Zaragoza, Zaragoza, Spain", "origen": "GMaps", "localidad": "Zaragoza"}, {"nombre_c": "TUBALCA\u00cdN", "tipo_c": "Instituto de Educaci\u00f3n Secundaria", "calidad": "postal_code", "direccion_cruda": "Avda. La Paz, S/N, Tarazona, Zaragoza, 50500", "key": "50011513", "lat": 41.9252374, "lng": -1.8123324, "provincia": "Zaragoza", "direccion": "50500, Zaragoza, Spain", "origen": "GMaps", "localidad": "Tarazona"}, {"nombre_c": "JOAQU\u00cdN COSTA", "tipo_c": "Colegio de Educaci\u00f3n Infantil y Primaria", "calidad": "street_address", "direccion_cruda": "P.\u00ba Mar\u00eda Agust\u00edn, 41, Zaragoza, Zaragoza, 50004", "key": "50006013", "lat": 41.6519661, "lng": -0.8916404, "provincia": "Zaragoza", "direccion": "Paseo Mar\u00eda Agust\u00edn, 41, 50004 Zaragoza, Zaragoza, Spain", "origen": "GMaps", "localidad": "Zaragoza"}, {"nombre_c": "CASA CANAL", "tipo_c": "Centro P\u00fablico de Educaci\u00f3n de Personas Adultas", "calidad": "street_address", "direccion_cruda": "P.\u00ba Cuellar, 6, Zaragoza, Zaragoza, 50006", "key": "50011458", "lat": 41.6355793, "lng": -0.8853679, "provincia": "Zaragoza", "direccion": "Paseo Cu\u00e9llar, 6, 50006 Zaragoza, Zaragoza, Spain", "origen": "GMaps", "localidad": "Zaragoza"}, {"nombre_c": "VILLA DE ZUERA", "tipo_c": "Escuela P\u00fablica de M\u00fasica", "calidad": "street_address", "direccion_cruda": "CL. CRUZ CUBIERTA, 1, Zuera, Zaragoza, 50800", "key": "50019184", "lat": 41.8678398, "lng": -0.7886333, "provincia": "Zaragoza", "direccion": "Calle Cruz Cubierta, 1, 50800 Zuera, Zaragoza, Spain", "origen": "GMaps", "localidad": "Zuera"}, {"nombre_c": "VIRGEN DEL ROMERAL", "tipo_c": "Centro Privado de Educaci\u00f3n Infantil Primaria y Secundaria", "calidad": "postal_code", "direccion_cruda": "Cl. Mariano De Pano, 5 Y 7, Bin\u00e9far, Huesca, 22500", "key": "22001085", "lat": 41.8447969, "lng": 0.2948797, "provincia": "Huesca", "direccion": "22500 Bin\u00e9far, Huesca, Spain", "origen": "GMaps", "localidad": "Bin\u00e9far"}, {"nombre_c": "ESCUELA DE M\u00daSICA Y DANZA", "tipo_c": "Escuela P\u00fablica de M\u00fasica y Danza", "calidad": "postal_code", "direccion_cruda": "Cl. Gonzalo De Liria, 2 - 2\u00aa Plta., Monreal del Campo, Teruel, 44300", "key": "44005219", "lat": 40.7688305, "lng": -1.3469247, "provincia": "Teruel", "direccion": "44300 Monreal del Campo, Teruel, Spain", "origen": "GMaps", "localidad": "Monreal del Campo"}, {"nombre_c": "VIRGEN DE LAS NIEVES", "tipo_c": "Escuela de Educaci\u00f3n Infantil", "calidad": "postal_code", "direccion_cruda": "CL. DEL PILAR, 21, Fresneda (La), Teruel, 44596", "key": "44010227", "lat": 40.928372, "lng": 0.0653341, "provincia": "Teruel", "direccion": "44596 La Fresneda, Teruel, Spain", "origen": "GMaps", "localidad": "Fresneda (La)"}, {"nombre_c": "LA COMETA", "tipo_c": "Escuela de Educaci\u00f3n Infantil", "calidad": "street_address", "direccion_cruda": "Pza. Escuelas, 9, Espl\u00fas, Huesca, 22535", "key": "22010104", "lat": 41.7974672, "lng": 0.2731977, "provincia": "Huesca", "direccion": "Plaza Escuelas, 9, 22535 Espl\u00fas, Huesca, Spain", "origen": "GMaps", "localidad": "Espl\u00fas"}, {"nombre_c": "DE FONZ", "tipo_c": "Escuela de Educaci\u00f3n Infantil", "calidad": "STREET", "direccion_cruda": "CL. ZARAGOZA, 8, Fonz, Huesca, 22422", "key": "22010554", "lat": 42.010589, "lng": 0.261088, "provincia": "Huesca", "direccion": "Calle Zaragoza, , Fonz, Provincia de Huesca, Aragon, 22423", "origen": "MapQuest", "localidad": "Fonz"}, {"nombre_c": "ISIDORO GIL DE JAZ", "tipo_c": "Colegio de Educaci\u00f3n Infantil y Primaria", "calidad": "postal_code", "direccion_cruda": "Pza. De La Villa, 2, Sos del Rey Cat\u00f3lico, Zaragoza, 50680", "key": "50004478", "lat": 42.495624, "lng": -1.2025207, "provincia": "Zaragoza", "direccion": "50680 Sos del Rey Cat\u00f3lico, Zaragoza, Spain", "origen": "GMaps", "localidad": "Sos del Rey Cat\u00f3lico"}, {"nombre_c": "SAGRADA FAMILIA", "tipo_c": "Centro Privado de Educaci\u00f3n Infantil Primaria y Secundaria", "calidad": "street_address", "direccion_cruda": "Cl. Carmen, 2 - 3, Tarazona, Zaragoza, 50500", "key": "50004570", "lat": 41.905911, "lng": -1.7290116, "provincia": "Zaragoza", "direccion": "Calle Carmen, 2, 50500 Tarazona, Zaragoza, Spain", "origen": "GMaps", "localidad": "Tarazona"}, {"nombre_c": "SE\u00d1ORA PABLA", "tipo_c": "Escuela de Educaci\u00f3n Infantil", "calidad": "postal_code", "direccion_cruda": "AVDA. DE \u00c1NGEL GARGALLO, 16, Urrea de Ga\u00e9n, Teruel, 44593", "key": "44010549", "lat": 41.1692494, "lng": -0.4974359, "provincia": "Teruel", "direccion": "44593 Urrea de Ga\u00e9n, Teruel, Spain", "origen": "GMaps", "localidad": "Urrea de Ga\u00e9n"}, {"nombre_c": "ZAGALINES", "tipo_c": "Centro Privado de Educaci\u00f3n Infantil", "calidad": "postal_code", "direccion_cruda": "AVDA. PUENTE DEL PILAR/CL JES\u00daS, 41, Zaragoza, Zaragoza, 50014", "key": "50018398", "lat": 41.6627946, "lng": -0.8627473, "provincia": "Zaragoza", "direccion": "50014 Zaragoza, Zaragoza, Spain", "origen": "GMaps", "localidad": "Zaragoza"}, {"nombre_c": "DE FUENTES DE EBRO", "tipo_c": "Escuela de Educaci\u00f3n Infantil", "calidad": "route", "direccion_cruda": "CL. CORTES DE CADIZ N\u00ba 6, Fuentes de Ebro, Zaragoza, 50740", "key": "50018441", "lat": 41.5079892, "lng": -0.6278304, "provincia": "Zaragoza", "direccion": "Calle Cortes de C\u00e1diz, 50740 Fuentes de Ebro, Zaragoza, Spain", "origen": "GMaps", "localidad": "Fuentes de Ebro"}, {"nombre_c": "DE TERUEL", "tipo_c": "Escuela Oficial de Idiomas", "calidad": "postal_code", "direccion_cruda": "Juez Villanueva, 1, Teruel, Teruel, 44002", "key": "44004318", "lat": 40.3316848, "lng": -1.1041302, "provincia": "Teruel", "direccion": "44002 Teruel, Teruel, Spain", "origen": "GMaps", "localidad": "Teruel"}, {"nombre_c": "SAN JUAN BAUTISTA", "tipo_c": "Colegio de Educaci\u00f3n Infantil y Primaria", "calidad": "street_address", "direccion_cruda": "Avda. San Antonio Abad, 37, Zaid\u00edn, Huesca, 22530", "key": "22004608", "lat": 41.6049804, "lng": 0.2671737, "provincia": "Huesca", "direccion": "Avenida San Antonio Abad, 37, 22530 Zaid\u00edn, Huesca, Spain", "origen": "GMaps", "localidad": "Zaid\u00edn"}, {"nombre_c": "EMILIO NAVARRO", "tipo_c": "Centro P\u00fablico de Educaci\u00f3n de Personas Adultas", "calidad": "postal_code", "direccion_cruda": "Cl. Argentina, S/N, Utebo, Zaragoza, 50180", "key": "50010855", "lat": 41.7115407, "lng": -0.9964085, "provincia": "Zaragoza", "direccion": "50180 Utebo, Zaragoza, Spain", "origen": "GMaps", "localidad": "Utebo"}, {"nombre_c": "\u00cdTACA", "tipo_c": "Secci\u00f3n de Instituto de Educaci\u00f3n Secundaria", "calidad": "postal_code", "direccion_cruda": "CL. DON CIPRIANO GONZ\u00c1LEZ, 10, Puebla de Alfind\u00e9n (La), Zaragoza, 50171", "key": "50018842", "lat": 41.6336763, "lng": -0.7485282, "provincia": "Zaragoza", "direccion": "50171 La Puebla de Alfind\u00e9n, Zaragoza, Spain", "origen": "GMaps", "localidad": "Puebla de Alfind\u00e9n (La)"}, {"nombre_c": "EUGENIO L\u00d3PEZ Y L\u00d3PEZ", "tipo_c": "Colegio de Educaci\u00f3n Infantil y Primaria", "calidad": "postal_code", "direccion_cruda": "Cl. Ca\u00f1on De A\u00f1isclo, 8, Zaragoza, Zaragoza, 50015", "key": "50008149", "lat": 41.692694, "lng": -0.8627473, "provincia": "Zaragoza", "direccion": "50015 Zaragoza, Zaragoza, Spain", "origen": "GMaps", "localidad": "Zaragoza"}, {"nombre_c": "MOLINER", "tipo_c": "Escuela Privada de M\u00fasica y Danza", "calidad": "street_address", "direccion_cruda": "CL. MAR\u00cdA MOLINER, 20, Zaragoza, Zaragoza, 50007", "key": "50018155", "lat": 41.6394665, "lng": -0.8841314, "provincia": "Zaragoza", "direccion": "Calle de Maria Moliner, 20, 50007 Zaragoza, Zaragoza, Spain", "origen": "GMaps", "localidad": "Zaragoza"}, {"nombre_c": "DE FUENDEJAL\u00d3N", "tipo_c": "Escuela de Educaci\u00f3n Infantil", "calidad": "route", "direccion_cruda": "CL. AFUERAS, S/N, Fuendejal\u00f3n, Zaragoza, 50529", "key": "50018404", "lat": 41.7629975, "lng": -1.4715341, "provincia": "Zaragoza", "direccion": "Diseminado Afueras, 50529 Fuendejal\u00f3n, Zaragoza, Spain", "origen": "GMaps", "localidad": "Fuendejal\u00f3n"}, {"nombre_c": "N\u00ba 1", "tipo_c": "Escuela Oficial de Idiomas", "calidad": "street_address", "direccion_cruda": "Cl. Domingo Miral, 23, Zaragoza, Zaragoza, 50009", "key": "50009762", "lat": 41.6423458, "lng": -0.9047958, "provincia": "Zaragoza", "direccion": "Calle Domingo Miral, 23, Universidad de Zaragoza, Campus Plaza San Francisco, 50009 Zaragoza, Zaragoza, Spain", "origen": "GMaps", "localidad": "Zaragoza"}, {"nombre_c": "SANTA CECILIA", "tipo_c": "Centro Privado Autorizado Elemental de M\u00fasica", "calidad": "postal_code", "direccion_cruda": "Cl. Manuel Lasala Vald\u00e9s, 6, Zaragoza, Zaragoza, 50006", "key": "50010910", "lat": 41.6363925, "lng": -0.8925446, "provincia": "Zaragoza", "direccion": "50006 Zaragoza, Zaragoza, Spain", "origen": "GMaps", "localidad": "Zaragoza"}, {"nombre_c": "SALVADOR VICTORIA", "tipo_c": "Instituto de Educaci\u00f3n Secundaria", "calidad": "postal_code", "direccion_cruda": "Cl. Mar\u00eda Moliner, 4, Monreal del Campo, Teruel, 44300", "key": "44004665", "lat": 40.7688305, "lng": -1.3469247, "provincia": "Teruel", "direccion": "44300 Monreal del Campo, Teruel, Spain", "origen": "GMaps", "localidad": "Monreal del Campo"}, {"nombre_c": "ROSALES DEL CANAL", "tipo_c": "Colegio de Educaci\u00f3n Infantil y Primaria", "calidad": "route", "direccion_cruda": "CL.San Juan Bautista de la Salle, 21, Zaragoza, Zaragoza, 50012", "key": "50018271", "lat": 41.6383524, "lng": -0.9435149, "provincia": "Zaragoza", "direccion": "Calle San Juan Bautista de la Salle, Zaragoza, Spain", "origen": "GMaps", "localidad": "Zaragoza"}, {"nombre_c": "DOMINGO MIRAL", "tipo_c": "Instituto de Educaci\u00f3n Secundaria", "calidad": "street_address", "direccion_cruda": "Avda. Regimiento de Galicia, 6, Jaca, Huesca, 22700", "key": "22002727", "lat": 42.5681127, "lng": -0.5530257, "provincia": "Huesca", "direccion": "Avenida Regimiento de Galicia, 6, 22700 Jaca, Huesca, Spain", "origen": "GMaps", "localidad": "Jaca"}, {"nombre_c": "PEQUENINOS", "tipo_c": "Centro Privado de Educaci\u00f3n Infantil", "calidad": "postal_code", "direccion_cruda": "CL. V\u00cdA IB\u00c9RICA, 67, Zaragoza, Zaragoza, 50012", "key": "50017771", "lat": 41.6323601, "lng": -0.9295234, "provincia": "Zaragoza", "direccion": "50012 Zaragoza, Zaragoza, Spain", "origen": "GMaps", "localidad": "Zaragoza"}, {"nombre_c": "PABLO LUNA", "tipo_c": "Colegio de Educaci\u00f3n Infantil y Primaria", "calidad": "street_address", "direccion_cruda": "AVDA. ARAG\u00d3N, 19, Alhama de Arag\u00f3n, Zaragoza, 50230", "key": "50017679", "lat": 41.2969086, "lng": -1.8939172, "provincia": "Zaragoza", "direccion": "Avenida de Arag\u00f3n, 19, 50230 Alhama, Zaragoza, Spain", "origen": "GMaps", "localidad": "Alhama de Arag\u00f3n"}, {"nombre_c": "SAN GERM\u00c1N", "tipo_c": "Centro Privado de Educaci\u00f3n Especial", "calidad": "postal_code", "direccion_cruda": "Ctra. De Huesca, S/N, Zaragoza, Zaragoza, 50020", "key": "50008915", "lat": 41.7622516, "lng": -0.8818151, "provincia": "Zaragoza", "direccion": "50020 Zaragoza, Zaragoza, Spain", "origen": "GMaps", "localidad": "Zaragoza"}, {"nombre_c": "POMPITAS", "tipo_c": "Escuela de Educaci\u00f3n Infantil", "calidad": "street_address", "direccion_cruda": "Cl. SIERRA DE ALCUBIERRE, 1, San Mateo de G\u00e1llego, Zaragoza, 50840", "key": "50018805", "lat": 41.8312374, "lng": -0.7661638, "provincia": "Zaragoza", "direccion": "Calle Sierra de Alcubierre, 1, 50840 San Mateo de G\u00e1llego, Zaragoza, Spain", "origen": "GMaps", "localidad": "San Mateo de G\u00e1llego"}, {"nombre_c": "DE S\u00c1DABA", "tipo_c": "Escuela de Educaci\u00f3n Infantil", "calidad": "postal_code", "direccion_cruda": "AVDA. PIRINEOS, S/N, S\u00e1daba, Zaragoza, 50670", "key": "50018027", "lat": 42.2784307, "lng": -1.2794744, "provincia": "Zaragoza", "direccion": "50670 S\u00e1daba, Zaragoza, Spain", "origen": "GMaps", "localidad": "S\u00e1daba"}, {"nombre_c": "LA PAZ", "tipo_c": "Escuela de Educaci\u00f3n Infantil", "calidad": "street_address", "direccion_cruda": "CL. EMILIO P\u00c9REZ VIDAL, N\u00ba 9, Zaragoza, Zaragoza, 50007", "key": "50018374", "lat": 41.6282277, "lng": -0.8738804, "provincia": "Zaragoza", "direccion": "Calle Emilio P\u00e9rez Vidal, 9, 50007 Zaragoza, Zaragoza, Spain", "origen": "GMaps", "localidad": "Zaragoza"}, {"nombre_c": "SANTA MARGARITA", "tipo_c": "Escuela de Educaci\u00f3n Infantil", "calidad": "postal_code", "direccion_cruda": "CARRETERA DE FRAGA S/N, Osso De Cinca, Huesca, 22532", "key": "22010414", "lat": 41.6757795, "lng": 0.2197765, "provincia": "Huesca", "direccion": "22532 Osso de Cinca, Huesca, Spain", "origen": "GMaps", "localidad": "Osso De Cinca"}, {"nombre_c": "HISPANIDAD", "tipo_c": "Colegio de Educaci\u00f3n Infantil y Primaria", "calidad": "street_address", "direccion_cruda": "Cl. Oc\u00e9ano Atl\u00e1ntico, 15, Zaragoza, Zaragoza, 50012", "key": "50010181", "lat": 41.6468333, "lng": -0.9178611, "provincia": "Zaragoza", "direccion": "Calle Oc\u00e9ano Atl\u00e1ntico, 15, 50012 Zaragoza, Zaragoza, Spain", "origen": "GMaps", "localidad": "Zaragoza"}, {"nombre_c": "MONCAYO", "tipo_c": "Colegio de Educaci\u00f3n Infantil y Primaria", "calidad": "postal_code", "direccion_cruda": "AVDA. LA PAZ, 10, Tarazona, Zaragoza, 50500", "key": "50004612", "lat": 41.9252374, "lng": -1.8123324, "provincia": "Zaragoza", "direccion": "50500, Zaragoza, Spain", "origen": "GMaps", "localidad": "Tarazona"}, {"nombre_c": "DE SABI\u00d1\u00c1N", "tipo_c": "Escuela de Educaci\u00f3n Infantil", "calidad": "street_address", "direccion_cruda": "Avda. San Roque, 22, Sabi\u00f1\u00e1n, Zaragoza, 50299", "key": "50017576", "lat": 41.4430574, "lng": -1.5629809, "provincia": "Zaragoza", "direccion": "Avenida San Roque, 22, 50299 Sabi\u00f1\u00e1n, Zaragoza, Spain", "origen": "GMaps", "localidad": "Sabi\u00f1\u00e1n"}, {"nombre_c": "ARCO-IRIS", "tipo_c": "Escuela de Educaci\u00f3n Infantil", "calidad": "route", "direccion_cruda": "CL. LA V\u00cdA, S/N, Magall\u00f3n, Zaragoza, 50520", "key": "50018787", "lat": 41.83015, "lng": -1.4592702, "provincia": "Zaragoza", "direccion": "Calle la V\u00eda, 50520 Magall\u00f3n, Zaragoza, Spain", "origen": "GMaps", "localidad": "Magall\u00f3n"}, {"nombre_c": "L' ALBARD\u00cdN", "tipo_c": "Colegio Rural Agrupado", "calidad": "street_address", "direccion_cruda": "Cl. Extramuros, 55-57, Azuara, Zaragoza, 50140", "key": "50011203", "lat": 41.2588669, "lng": -0.8733086, "provincia": "Zaragoza", "direccion": "Calle Extramuros, 55, 50140 Azuara, Zaragoza, Spain", "origen": "GMaps", "localidad": "Azuara"}, {"nombre_c": "CANT\u00cdN Y GAMBOA", "tipo_c": "Centro Privado de Educaci\u00f3n Infantil Primaria y Secundaria", "calidad": "street_address", "direccion_cruda": "Cl. Moret, 4, Zaragoza, Zaragoza, 50001", "key": "50006578", "lat": 41.6482, "lng": -0.87791, "provincia": "Zaragoza", "direccion": "Calle Moret, Segismundo, 4, 50001 Zaragoza, Zaragoza, Spain", "origen": "GMaps", "localidad": "Zaragoza"}, {"nombre_c": "VILLA DE UTRILLAS", "tipo_c": "Colegio de Educaci\u00f3n Infantil y Primaria", "calidad": "postal_code", "direccion_cruda": "Cl. Pablo Gargallo, S/N, Utrillas, Teruel, 44760", "key": "44003636", "lat": 40.8038614, "lng": -0.8579818, "provincia": "Teruel", "direccion": "44760 Utrillas, Teruel, Spain", "origen": "GMaps", "localidad": "Utrillas"}, {"nombre_c": "ANTONIO MART\u00cdNEZ GARAY", "tipo_c": "Colegio de Educaci\u00f3n Infantil y Primaria", "calidad": "street_address", "direccion_cruda": "CL. C\u00e1diz, 12, Casetas, Zaragoza, 50620", "key": "50009786", "lat": 41.7243272, "lng": -1.0337408, "provincia": "Zaragoza", "direccion": "Calle C\u00e1diz, 12, 50620 Zaragoza, Zaragoza, Spain", "origen": "GMaps", "localidad": "Casetas"}, {"nombre_c": "MAESTRO DON PEDRO OR\u00d3S", "tipo_c": "Colegio de Educaci\u00f3n Infantil y Primaria", "calidad": "street_address", "direccion_cruda": "Pza. Mayor, 7, Movera, Zaragoza, 50194", "key": "50005653", "lat": 41.6496664, "lng": -0.8220945, "provincia": "Zaragoza", "direccion": "Plaza Mayor, 7, 50194 Zaragoza, Zaragoza, Spain", "origen": "GMaps", "localidad": "Movera"}, {"nombre_c": "EMILIO D\u00cdAZ", "tipo_c": "Colegio de Educaci\u00f3n Infantil y Primaria", "calidad": "postal_code", "direccion_cruda": "Cl. Ronda De Caspe, 1, Alca\u00f1iz, Teruel, 44600", "key": "44000246", "lat": 41.0795661, "lng": -0.1869644, "provincia": "Teruel", "direccion": "44600 Alca\u00f1iz, Teruel, Spain", "origen": "GMaps", "localidad": "Alca\u00f1iz"}, {"nombre_c": "MIGUEL BLASCO VILATELA", "tipo_c": "Colegio de Educaci\u00f3n Infantil y Primaria", "calidad": "postal_code", "direccion_cruda": "Cl. Matadero, S/N, Cella, Teruel, 44370", "key": "44001159", "lat": 40.4446851, "lng": -1.2698475, "provincia": "Teruel", "direccion": "44370, Teruel, Spain", "origen": "GMaps", "localidad": "Cella"}, {"nombre_c": "DUMBO", "tipo_c": "Centro Privado de Educaci\u00f3n Infantil", "calidad": "street_address", "direccion_cruda": "CL. SAN DAMI\u00c1N, 5, Teruel, Teruel, 44003", "key": "44010094", "lat": 40.3472388, "lng": -1.1100085, "provincia": "Teruel", "direccion": "Calle San Dami\u00e1n, 5, 44003 Teruel, Teruel, Spain", "origen": "GMaps", "localidad": "Teruel"}, {"nombre_c": "MIGUEL HERN\u00c1NDEZ", "tipo_c": "Centro P\u00fablico de Educaci\u00f3n de Personas Adultas", "calidad": "street_address", "direccion_cruda": "CL. SAN MIGUEL, 20, Casetas, Zaragoza, 50620", "key": "50010867", "lat": 41.719329, "lng": -1.0253731, "provincia": "Zaragoza", "direccion": "Calle San Miguel, 20, 50620 Zaragoza, Zaragoza, Spain", "origen": "GMaps", "localidad": "Casetas"}, {"nombre_c": "MAFALDA-LAS VI\u00d1AS", "tipo_c": "Centro Privado de Educaci\u00f3n Infantil", "calidad": "street_address", "direccion_cruda": "CAMINO CAPUCHINOS, 1, Teruel, Teruel, 44003", "key": "44010318", "lat": 40.3520062, "lng": -1.1194397, "provincia": "Teruel", "direccion": "Camino Capuchinos, 1, 44001 Teruel, Teruel, Spain", "origen": "GMaps", "localidad": "Teruel"}, {"nombre_c": "TERESIANO DEL PILAR", "tipo_c": "Centro Privado de Educaci\u00f3n Infantil Primaria y Secundaria", "calidad": "street_address", "direccion_cruda": "CAMI. DE PINSEQUE, 37-39, Zaragoza, Zaragoza, 50011", "key": "50007248", "lat": 41.6748811, "lng": -0.9599911, "provincia": "Zaragoza", "direccion": "Camino de Pinseque, 37, 50011 Zaragoza, Zaragoza, Spain", "origen": "GMaps", "localidad": "Zaragoza"}, {"nombre_c": "DE ROBRES", "tipo_c": "Escuela de Educaci\u00f3n Infantil", "calidad": "street_address", "direccion_cruda": "CL. SAN BLAS, 9, Robres, Huesca, 22252", "key": "22010611", "lat": 41.8674212, "lng": -0.4621248, "provincia": "Huesca", "direccion": "Calle San Blas, 9, 22252 Robres, Huesca, Spain", "origen": "GMaps", "localidad": "Robres"}, {"nombre_c": "CERRO DE SANTA CRUZ", "tipo_c": "Colegio Rural Agrupado", "calidad": "postal_code", "direccion_cruda": "CTRA. DE ATEA, S/N, Used, Zaragoza, 50374", "key": "50011197", "lat": 41.0079237, "lng": -1.6178011, "provincia": "Zaragoza", "direccion": "50374 Torralba de los Frailes, Zaragoza, Spain", "origen": "GMaps", "localidad": "Used"}, {"nombre_c": "ANA MAYAYO", "tipo_c": "Colegio de Educaci\u00f3n Infantil y Primaria", "calidad": "street_address", "direccion_cruda": "CL. Alfonso Carlos Com\u00edn Ros, 2, Zaragoza, Zaragoza, 50017", "key": "50005896", "lat": 41.6547271, "lng": -0.9115775, "provincia": "Zaragoza", "direccion": "Calle Alfonso Carlos Com\u00edn Ros, 2, 50017 Zaragoza, Zaragoza, Spain", "origen": "GMaps", "localidad": "Zaragoza"}, {"nombre_c": "JOS\u00c9 ANTONIO LABORDETA SUB\u00cdAS", "tipo_c": "Colegio de Educaci\u00f3n Infantil y Primaria", "calidad": "street_address", "direccion_cruda": "Pza. Pedro Saputo, 7, Zaragoza, Zaragoza, 50018", "key": "50011801", "lat": 41.6766696, "lng": -0.8947439, "provincia": "Zaragoza", "direccion": "Calle Pedro Saputo, 7, 50018 Zaragoza, Zaragoza, Spain", "origen": "GMaps", "localidad": "Zaragoza"}, {"nombre_c": "MONTECANAL", "tipo_c": "Colegio de Educaci\u00f3n Infantil y Primaria", "calidad": "postal_code", "direccion_cruda": "CL. Tom\u00e1s de Leza\u00fan, 15, Zaragoza, Zaragoza, 50012", "key": "50017710", "lat": 41.6323601, "lng": -0.9295234, "provincia": "Zaragoza", "direccion": "50012 Zaragoza, Zaragoza, Spain", "origen": "GMaps", "localidad": "Zaragoza"}, {"nombre_c": "MATARRA\u00d1A", "tipo_c": "Instituto de Educaci\u00f3n Secundaria", "calidad": "postal_code", "direccion_cruda": "Avda. Gral. Guti\u00e9rrez Mellado, S/N, Valderrobres, Teruel, 44580", "key": "44004598", "lat": 40.8575596, "lng": 0.1307797, "provincia": "Teruel", "direccion": "44580 Valderrobres, Teruel, Spain", "origen": "GMaps", "localidad": "Valderrobres"}, {"nombre_c": "RENACUAJOS", "tipo_c": "Escuela de Educaci\u00f3n Infantil", "calidad": "CITY", "direccion_cruda": "PARAJE DEL BERGEL (POL\u00cdGONO 1; PARCELAS 157-159-164-190-226), Pastriz, Zaragoza, 50195", "key": "50018659", "lat": 41.618856, "lng": -0.784308, "provincia": "Zaragoza", "direccion": ", , Pastriz, Provincia de Zaragoza, Aragon, ", "origen": "MapQuest", "localidad": "Pastriz"}, {"nombre_c": "LO NIU", "tipo_c": "Escuela de Educaci\u00f3n Infantil", "calidad": "CITY", "direccion_cruda": "Cl. Lorenzo Barea, 4, Albelda, Huesca, 22558", "key": "22010062", "lat": 41.864975, "lng": 0.460506, "provincia": "Huesca", "direccion": ", , Albelda, Provincia de Huesca, Aragon, ", "origen": "MapQuest", "localidad": "Albelda"}, {"nombre_c": "DE SARRI\u00d3N", "tipo_c": "Colegio de Educaci\u00f3n Infantil y Primaria", "calidad": "street_address", "direccion_cruda": "Cl. Tenor Juan Garc\u00eda, 2, Sarri\u00f3n, Teruel, 44460", "key": "44002942", "lat": 40.1403385, "lng": -0.8105148, "provincia": "Teruel", "direccion": "Calle Tenor Juan Garc\u00eda, 2, 44460 Sarri\u00f3n, Teruel, Spain", "origen": "GMaps", "localidad": "Sarri\u00f3n"}, {"nombre_c": "NTRA. SRA. DE LOS DOLORES", "tipo_c": "Centro Privado de Educaci\u00f3n Infantil", "calidad": "street_address", "direccion_cruda": "Cl. Privilegio De La Uni\u00f3n, 39, Zaragoza, Zaragoza, 50013", "key": "50017175", "lat": 41.6417722, "lng": -0.8706505, "provincia": "Zaragoza", "direccion": "Calle Privilegio de la Uni\u00f3n, 39, 50013 Zaragoza, Zaragoza, Spain", "origen": "GMaps", "localidad": "Zaragoza"}, {"nombre_c": "EQUIPO GENERAL ZARAGOZA 4", "tipo_c": "Equipos de Orientaci\u00f3n Educativa y Psicopedag\u00f3gica. Generales", "calidad": "postal_code", "direccion_cruda": "Avda. de la Almozara, s/n, Zaragoza, Zaragoza, 50003", "key": "50700148", "lat": 41.6612847, "lng": -0.8973142, "provincia": "Zaragoza", "direccion": "50003 Zaragoza, Zaragoza, Spain", "origen": "GMaps", "localidad": "Zaragoza"}, {"nombre_c": "BALTASAR GONZ\u00c1LEZ", "tipo_c": "Escuela de Educaci\u00f3n Infantil", "calidad": "postal_code", "direccion_cruda": "CL. PROLONGACI\u00d3N LA FLORIDA, Borja, Zaragoza, 50540", "key": "50018301", "lat": 41.8497867, "lng": -1.5402327, "provincia": "Zaragoza", "direccion": "50540 Borja, Zaragoza, Spain", "origen": "GMaps", "localidad": "Borja"}, {"nombre_c": "ALBORADA", "tipo_c": "Colegio de Educaci\u00f3n Especial", "calidad": "postal_code", "direccion_cruda": "Andador Pilar Cuartero Molinero, 1, Zaragoza, Zaragoza, 50018", "key": "50010387", "lat": 41.6725454, "lng": -0.8913523, "provincia": "Zaragoza", "direccion": "50018 Zaragoza, Zaragoza, Spain", "origen": "GMaps", "localidad": "Zaragoza"}, {"nombre_c": "ENSANCHE", "tipo_c": "Colegio de Educaci\u00f3n Infantil y Primaria", "calidad": "street_address", "direccion_cruda": "Cl. Jos\u00e9 Tor\u00e1n, 5, Teruel, Teruel, 44002", "key": "44003272", "lat": 40.3372144, "lng": -1.1067769, "provincia": "Teruel", "direccion": "Calle Jos\u00e9 Tor\u00e1n, 5, 44002 Teruel, Teruel, Spain", "origen": "GMaps", "localidad": "Teruel"}, {"nombre_c": "TENER\u00cdAS", "tipo_c": "Colegio de Educaci\u00f3n Infantil y Primaria", "calidad": "street_address", "direccion_cruda": "CL. Coso n\u00ba 214, Zaragoza, Zaragoza, 50002", "key": "50009397", "lat": 41.6529154, "lng": -0.8719452, "provincia": "Zaragoza", "direccion": "Calle Del Coso, 214, 50002 Zaragoza, Zaragoza, Spain", "origen": "GMaps", "localidad": "Zaragoza"}, {"nombre_c": "SAN ANTONIO DE PADUA", "tipo_c": "Guarder\u00eda del Gobierno de Arag\u00f3n", "calidad": "route", "direccion_cruda": "CL. Col\u00f3n, 4, Gallur, Zaragoza, 50650", "key": "50600129", "lat": 41.8686535, "lng": -1.3140797, "provincia": "Zaragoza", "direccion": "Calle Crist\u00f3bal Col\u00f3n, 50650 Gallur, Zaragoza, Spain", "origen": "GMaps", "localidad": "Gallur"}, {"nombre_c": "EL OSO DEL PARQUE", "tipo_c": "Centro Privado de Educaci\u00f3n Infantil", "calidad": "postal_code", "direccion_cruda": "CL. ANDADOR REINA ESTER/ALBERTO ALBERICIO CONCH\u00c1N, LOCAL N\u00ba 4, Zaragoza, Zaragoza, 50002", "key": "50017497", "lat": 41.6429234, "lng": -0.8532168, "provincia": "Zaragoza", "direccion": "50002 Zaragoza, Zaragoza, Spain", "origen": "GMaps", "localidad": "Zaragoza"},